[{"ccn":"010001","name":"SOUTHEAST HEALTH MEDICAL CENTER","city":"DOTHAN","st":"AL","beds":420,"lat":31.2157,"lon":-85.3614},{"ccn":"010005","name":"MARSHALL MEDICAL CENTERS SOUTH CAMPUS","city":"BOAZ","st":"AL","beds":240,"lat":34.2212,"lon":-86.1594},{"ccn":"010006","name":"NORTH ALABAMA MEDICAL CENTER","city":"FLORENCE","st":"AL","beds":338,"lat":34.8038,"lon":-87.6499},{"ccn":"010012","name":"DEKALB REGIONAL MEDICAL CENTER","city":"FORT PAYNE","st":"AL","beds":134,"lat":34.4399,"lon":-85.756},{"ccn":"010016","name":"SHELBY BAPTIST MEDICAL CENTER","city":"ALABASTER","st":"AL","beds":252,"lat":33.2514,"lon":-86.8146},{"ccn":"010019","name":"HELEN KELLER MEMORIAL HOSPITAL","city":"SHEFFIELD","st":"AL","beds":185,"lat":34.7459,"lon":-87.699},{"ccn":"010021","name":"DALE MEDICAL CENTER","city":"OZARK","st":"AL","beds":89,"lat":31.4518,"lon":-85.631},{"ccn":"010023","name":"BAPTIST MEDICAL CENTER SOUTH","city":"MONTGOMERY","st":"AL","beds":432,"lat":32.3272,"lon":-86.2761},{"ccn":"010046","name":"RIVERVIEW REGIONAL MEDICAL CENTER","city":"GADSDEN","st":"AL","beds":281,"lat":34.005,"lon":-86.0039},{"ccn":"010055","name":"FLOWERS HOSPITAL","city":"DOTHAN","st":"AL","beds":235,"lat":31.236,"lon":-85.4577},{"ccn":"010056","name":"ST VINCENT'S BIRMINGHAM","city":"BIRMINGHAM","st":"AL","beds":409,"lat":33.5089,"lon":-86.7885},{"ccn":"010083","name":"BALDWIN HEALTH","city":"FOLEY","st":"AL","beds":112,"lat":30.4266,"lon":-87.6833},{"ccn":"010089","name":"WALKER BAPTIST MEDICAL CENTER","city":"JASPER","st":"AL","beds":267,"lat":33.8414,"lon":-87.2374},{"ccn":"010092","name":"DCH REGIONAL MEDICAL CENTER","city":"TUSCALOOSA","st":"AL","beds":787,"lat":33.2062,"lon":-87.5268},{"ccn":"010100","name":"THOMAS HOSPITAL","city":"FAIRHOPE","st":"AL","beds":162,"lat":30.5199,"lon":-87.8899},{"ccn":"010103","name":"PRINCETON BAPTIST MEDICAL CENTER","city":"BIRMINGHAM","st":"AL","beds":505,"lat":33.4995,"lon":-86.8453},{"ccn":"010104","name":"GRANDVIEW MEDICAL CENTER","city":"BIRMINGHAM","st":"AL","beds":422,"lat":33.4409,"lon":-86.7415},{"ccn":"010113","name":"MOBILE INFIRMARY MEDICAL CENTER","city":"MOBILE","st":"AL","beds":669,"lat":30.6967,"lon":-88.0793},{"ccn":"010114","name":"MEDICAL WEST, AN AFFILIATE OF UAB HEALTH SYSTEM","city":"BESSEMER","st":"AL","beds":310,"lat":33.3228,"lon":-86.9715},{"ccn":"010139","name":"BROOKWOOD BAPTIST MEDICAL CENTER","city":"VESTAVIA","st":"AL","beds":595,"lat":33.4192,"lon":-86.7894},{"ccn":"010158","name":"RUSSELLVILLE HOSPITAL","city":"RUSSELLVILLE","st":"AL","beds":100,"lat":34.5132,"lon":-87.8737},{"ccn":"010164","name":"COOSA VALLEY MEDICAL CENTER","city":"SYLACAUGA","st":"AL","beds":168,"lat":33.1646,"lon":-86.2541},{"ccn":"030002","name":"BANNER - UNIVERSITY MEDICAL CENTER PHOENIX","city":"PHOENIX","st":"AZ","beds":766,"lat":33.4657,"lon":-112.0595},{"ccn":"030006","name":"TUCSON MEDICAL CENTER","city":"TUCSON","st":"AZ","beds":596,"lat":32.2507,"lon":-110.8798},{"ccn":"030007","name":"VERDE VALLEY MEDICAL CENTER","city":"COTTONWOOD","st":"AZ","beds":98,"lat":34.7353,"lon":-112.0315},{"ccn":"030010","name":"ST. MARY'S HOSPITAL","city":"TUCSON","st":"AZ","beds":400,"lat":32.255,"lon":-111.0888},{"ccn":"030011","name":"ST JOSEPH'S HOSPITAL","city":"TUCSON","st":"AZ","beds":486,"lat":32.2258,"lon":-110.8579},{"ccn":"030012","name":"YAVAPAI REGIONAL MEDICAL CENTER","city":"PRESCOTT","st":"AZ","beds":218,"lat":34.5584,"lon":-112.482},{"ccn":"030013","name":"YUMA REGIONAL MEDICAL CENTER","city":"YUMA","st":"AZ","beds":369,"lat":32.6839,"lon":-114.6333},{"ccn":"030014","name":"HONORHEALTH JOHN C. LINCOLN MEDICAL CENTER","city":"PHOENIX","st":"AZ","beds":262,"lat":33.5678,"lon":-112.0711},{"ccn":"030016","name":"BANNER CASA GRANDE MEDICAL CENTER","city":"CASA GRANDE","st":"AZ","beds":141,"lat":32.8796,"lon":-111.71},{"ccn":"030023","name":"FLAGSTAFF MEDICAL CENTER","city":"FLAGSTAFF","st":"AZ","beds":264,"lat":35.209,"lon":-111.645},{"ccn":"030024","name":"ST. JOSEPH'S HOSPITAL AND MEDICAL CENTER","city":"PHOENIX","st":"AZ","beds":586,"lat":33.4804,"lon":-112.0786},{"ccn":"030030","name":"ABRAZO CENTRAL CAMPUS","city":"PHOENIX","st":"AZ","beds":206,"lat":33.5242,"lon":-112.1019},{"ccn":"030036","name":"CHANDLER REGIONAL MEDICAL CENTER","city":"CHANDLER","st":"AZ","beds":429,"lat":33.2986,"lon":-111.8751},{"ccn":"030037","name":"TEMPE ST LUKES HOSPITAL","city":"TEMPE","st":"AZ","beds":219,"lat":33.4126,"lon":-111.9399},{"ccn":"030038","name":"HONORHEALTH SCOTTSDALE OSBORN MEDICAL CENTER","city":"SCOTTSDALE","st":"AZ","beds":341,"lat":33.4877,"lon":-111.9238},{"ccn":"030043","name":"CANYON VISTA MEDICAL CENTER","city":"SIERRA VISTA","st":"AZ","beds":100,"lat":31.5545,"lon":-110.2304},{"ccn":"030055","name":"KINGMAN REGIONAL MEDICAL CENTER","city":"KINGMAN","st":"AZ","beds":235,"lat":35.1317,"lon":-113.7039},{"ccn":"030062","name":"SUMMIT HEALTHCARE REGIONAL MEDICAL CENTER","city":"SHOW LOW","st":"AZ","beds":101,"lat":34.3148,"lon":-110.024},{"ccn":"030064","name":"BANNER - UNIVERSITY MEDICAL CENTER TUCSON CAMPUS","city":"TUCSON","st":"AZ","beds":625,"lat":32.2419,"lon":-110.9441},{"ccn":"030065","name":"BANNER DESERT MEDICAL CENTER","city":"MESA","st":"AZ","beds":595,"lat":33.3892,"lon":-111.8747},{"ccn":"030069","name":"HAVASU REGIONAL MEDICAL CENTER","city":"LAKE HAVASU CITY","st":"AZ","beds":152,"lat":34.4798,"lon":-114.3396},{"ccn":"030085","name":"NORTHWEST MEDICAL CENTER","city":"TUCSON","st":"AZ","beds":300,"lat":32.3353,"lon":-111.0418},{"ccn":"030087","name":"HONORHEALTH SCOTTSDALE SHEA MEDICAL CENTER","city":"SCOTTSDALE","st":"AZ","beds":425,"lat":33.5825,"lon":-111.8859},{"ccn":"030092","name":"HONORHEALTH DEER VALLEY MEDICAL CENTER","city":"PHOENIX","st":"AZ","beds":204,"lat":33.666,"lon":-112.1172},{"ccn":"030093","name":"BANNER DEL E. WEBB MEDICAL CENTER","city":"SUN CITY WEST","st":"AZ","beds":394,"lat":33.6585,"lon":-112.3716},{"ccn":"030101","name":"WESTERN ARIZONA REGIONAL MEDICAL CENTER","city":"BULLHEAD CITY","st":"AZ","beds":139,"lat":35.11,"lon":-114.5558},{"ccn":"030103","name":"MAYO CLINIC HOSPITAL","city":"PHOENIX","st":"AZ","beds":280,"lat":33.6633,"lon":-111.9558},{"ccn":"030105","name":"BANNER HEART HOSPITAL","city":"MESA","st":"AZ","beds":111,"lat":33.4104,"lon":-111.6855},{"ccn":"030110","name":"ABRAZO WEST CAMPUS","city":"GOODYEAR","st":"AZ","beds":200,"lat":33.4643,"lon":-112.3536},{"ccn":"030111","name":"BANNER-UNIVERSITY MEDICAL CENTER SOUTH CAMPUS","city":"TUCSON","st":"AZ","beds":245,"lat":32.1779,"lon":-110.9319},{"ccn":"030114","name":"ORO VALLEY HOSPITAL","city":"ORO VALLEY","st":"AZ","beds":146,"lat":32.4251,"lon":-110.9572},{"ccn":"030115","name":"BANNER ESTRELLA MEDICAL CENTER","city":"PHOENIX","st":"AZ","beds":317,"lat":33.4867,"lon":-112.2683},{"ccn":"030117","name":"VALLEY VIEW MEDICAL CENTER","city":"FORT MOHAVE","st":"AZ","beds":84,"lat":35.0032,"lon":-114.598},{"ccn":"030119","name":"MERCY GILBERT MEDICAL CENTER","city":"GILBERT","st":"AZ","beds":197,"lat":33.2862,"lon":-111.7553},{"ccn":"030121","name":"MOUNTAIN VISTA MEDICAL CENTER, LP","city":"MESA","st":"AZ","beds":178,"lat":33.3754,"lon":-111.6399},{"ccn":"030123","name":"HONORHEALTH SCOTTSDALE THOMPSON PEAK MED CTR","city":"SCOTTSDALE","st":"AZ","beds":120,"lat":33.6699,"lon":-111.9221},{"ccn":"030146","name":"HONORHEALTH SONORAN CROSSING MEDICAL CENTER","city":"PHOENIX","st":"AZ","beds":70,"lat":33.7857,"lon":-112.1287},{"ccn":"030147","name":"BANNER OCOTILLO MEDICAL CENTER","city":"CHANDLER","st":"AZ","beds":94,"lat":33.2866,"lon":-111.8587},{"ccn":"031314","name":"COBRE VALLEY REGIONAL MEDICAL CENTER","city":"GLOBE","st":"AZ","beds":25,"lat":33.559,"lon":-110.7691},{"ccn":"031317","name":"LA PAZ REGIONAL HOSPITAL","city":"PARKER","st":"AZ","beds":25,"lat":34.1356,"lon":-114.2847},{"ccn":"040004","name":"WASHINGTON REGIONAL MEDICAL CENTER","city":"FAYETTEVILLE","st":"AR","beds":425,"lat":36.108,"lon":-94.1558},{"ccn":"040007","name":"CHI ST VINCENT INFIRMARY","city":"LITTLE ROCK","st":"AR","beds":615,"lat":34.7503,"lon":-92.3512},{"ccn":"040014","name":"UNITY HEALTH WHITE COUNTY MEDICAL CENTER","city":"SEARCY","st":"AR","beds":571,"lat":35.2505,"lon":-91.6968},{"ccn":"040016","name":"UAMS MEDICAL CENTER","city":"LITTLE ROCK","st":"AR","beds":450,"lat":34.7515,"lon":-92.32},{"ccn":"040020","name":"ST BERNARDS MEDICAL CENTER","city":"JONESBORO","st":"AR","beds":440,"lat":35.8383,"lon":-90.7039},{"ccn":"040022","name":"NORTHWEST MEDICAL CENTER","city":"SPRINGDALE","st":"AR","beds":414,"lat":36.1813,"lon":-94.1363},{"ccn":"040026","name":"CHI ST. VINCENT HOSPITAL HOT SPRINGS","city":"HOT SPRINGS","st":"AR","beds":282,"lat":34.4661,"lon":-93.067},{"ccn":"040027","name":"BAXTER HEALTH","city":"MOUNTAIN HOME","st":"AR","beds":268,"lat":36.3429,"lon":-92.3945},{"ccn":"040029","name":"CONWAY REGIONAL MEDICAL CENTER, INC","city":"CONWAY","st":"AR","beds":150,"lat":35.0849,"lon":-92.4569},{"ccn":"040036","name":"BAPTIST HEALTH MEDICAL CENTER NORTH LITTLE ROCK","city":"NORTH LITTLE ROCK","st":"AR","beds":225,"lat":34.7866,"lon":-92.22},{"ccn":"040039","name":"ARKANSAS METHODIST MEDICAL CENTER","city":"PARAGOULD","st":"AR","beds":129,"lat":36.0525,"lon":-90.4978},{"ccn":"040041","name":"ST MARYS REGIONAL MEDICAL CENTER","city":"RUSSELLVILLE","st":"AR","beds":170,"lat":35.2829,"lon":-93.15},{"ccn":"040050","name":"OUACHITA COUNTY MEDICAL CENTER","city":"CAMDEN","st":"AR","beds":98,"lat":33.5769,"lon":-92.834},{"ccn":"040055","name":"BAPTIST HEALTH - FORT SMITH","city":"FORT SMITH","st":"AR","beds":492,"lat":35.375,"lon":-94.4212},{"ccn":"040062","name":"MERCY HOSPITAL FORT SMITH","city":"FORT SMITH","st":"AR","beds":360,"lat":35.3533,"lon":-94.3522},{"ccn":"040071","name":"JEFFERSON REGIONAL MEDICAL CENTER","city":"PINE BLUFF","st":"AR","beds":300,"lat":34.189,"lon":-92.0182},{"ccn":"040078","name":"NATIONAL PARK MEDICAL CENTER","city":"HOT SPRINGS","st":"AR","beds":163,"lat":34.4867,"lon":-93.0339},{"ccn":"040084","name":"SALINE MEMORIAL HOSPITAL","city":"BENTON","st":"AR","beds":177,"lat":34.6067,"lon":-92.479},{"ccn":"040088","name":"SOUTH ARKANSAS REGIONAL HOSPITAL LLC","city":"EL DORADO","st":"AR","beds":149,"lat":33.2184,"lon":-92.6723},{"ccn":"040114","name":"BAPTIST HEALTH MEDICAL CENTER-LITTLE ROCK","city":"LITTLE ROCK","st":"AR","beds":807,"lat":34.7503,"lon":-92.3512},{"ccn":"040118","name":"NEA BAPTIST MEMORIAL HOSPITAL","city":"JONESBORO","st":"AR","beds":228,"lat":35.8643,"lon":-90.639},{"ccn":"040119","name":"WHITE RIVER MEDICAL CENTER","city":"BATESVILLE","st":"AR","beds":224,"lat":35.7695,"lon":-91.6347},{"ccn":"040134","name":"ARKANSAS HEART HOSPITAL, LLC","city":"LITTLE ROCK","st":"AR","beds":110,"lat":34.7395,"lon":-92.3944},{"ccn":"040137","name":"ST VINCENT MEDICAL CENTER/NORTH","city":"SHERWOOD","st":"AR","beds":69,"lat":34.8143,"lon":-92.2083},{"ccn":"040154","name":"BAPTIST HEALTH MEDICAL CENTER- CONWAY","city":"CONWAY","st":"AR","beds":111,"lat":35.0564,"lon":-92.4168},{"ccn":"040161","name":"ARKANSAS HEART HOSPITAL-ENCORE","city":"BRYANT","st":"AR","beds":25,"lat":34.6075,"lon":-92.4885},{"ccn":"050006","name":"PROVIDENCE ST JOSEPH HOSPITAL","city":"EUREKA","st":"CA","beds":140,"lat":40.7845,"lon":-124.1416},{"ccn":"050007","name":"MILLS-PENINSULA MEDICAL CENTER","city":"BURLINGAME","st":"CA","beds":301,"lat":37.5945,"lon":-122.3832},{"ccn":"050013","name":"ADVENTIST HEALTH ST HELENA","city":"SAINT HELENA","st":"CA","beds":181,"lat":38.5445,"lon":-122.4757},{"ccn":"050017","name":"MERCY GENERAL HOSPITAL","city":"SACRAMENTO","st":"CA","beds":419,"lat":38.5697,"lon":-121.4536},{"ccn":"050022","name":"RIVERSIDE COMMUNITY HOSPITAL","city":"RIVERSIDE","st":"CA","beds":478,"lat":33.9762,"lon":-117.3784},{"ccn":"050024","name":"PARADISE VALLEY HOSPITAL","city":"NATIONAL CITY","st":"CA","beds":237,"lat":32.6861,"lon":-117.0836},{"ccn":"050025","name":"UC SAN DIEGO HEALTH HILLCREST - HILLCREST MED CTR","city":"SAN DIEGO","st":"CA","beds":600,"lat":32.7538,"lon":-117.1656},{"ccn":"050026","name":"GROSSMONT HOSPITAL","city":"LA MESA","st":"CA","beds":536,"lat":32.7792,"lon":-117.0085},{"ccn":"050030","name":"OROVILLE HOSPITAL","city":"OROVILLE","st":"CA","beds":153,"lat":39.5046,"lon":-121.542},{"ccn":"050036","name":"BAKERSFIELD MEMORIAL HOSPITAL","city":"BAKERSFIELD","st":"CA","beds":421,"lat":35.3905,"lon":-119.0066},{"ccn":"050038","name":"SANTA CLARA VALLEY MEDICAL CENTER","city":"SAN JOSE","st":"CA","beds":1182,"lat":37.3163,"lon":-121.9319},{"ccn":"050039","name":"ENLOE HEALTH","city":"CHICO","st":"CA","beds":298,"lat":39.7424,"lon":-121.849},{"ccn":"050040","name":"LAC/OLIVE VIEW-UCLA MEDICAL CENTER","city":"SYLMAR","st":"CA","beds":324,"lat":34.3243,"lon":-118.4477},{"ccn":"050043","name":"ALTA BATES SUMMIT MEDICAL CENTER","city":"OAKLAND","st":"CA","beds":569,"lat":37.8344,"lon":-122.2644},{"ccn":"050047","name":"CALIFORNIA PACIFIC MEDICAL CENTER- VAN NESS CAMPUS","city":"SAN FRANCISCO","st":"CA","beds":608,"lat":37.7857,"lon":-122.4216},{"ccn":"050058","name":"GLENDALE MEM HOSPITAL & HLTH CENTER","city":"GLENDALE","st":"CA","beds":334,"lat":34.1284,"lon":-118.2577},{"ccn":"050060","name":"COMMUNITY REGIONAL MEDICAL CENTER","city":"FRESNO","st":"CA","beds":794,"lat":36.7426,"lon":-119.783},{"ccn":"050063","name":"HOLLYWOOD PRESBYTERIAN MEDICAL CENTER","city":"LOS ANGELES","st":"CA","beds":345,"lat":34.0956,"lon":-118.2917},{"ccn":"050077","name":"SCRIPPS MERCY HOSPITAL","city":"SAN DIEGO","st":"CA","beds":700,"lat":32.7513,"lon":-117.1611},{"ccn":"050082","name":"ST JOHNS REGIONAL MEDICAL CENTER","city":"OXNARD","st":"CA","beds":265,"lat":34.2164,"lon":-119.1583},{"ccn":"050084","name":"ST JOSEPH'S MEDICAL CENTER OF STOCKTON","city":"STOCKTON","st":"CA","beds":335,"lat":37.9685,"lon":-121.2885},{"ccn":"050089","name":"COMMUNITY HOSPITAL OF SAN BERNARDINO","city":"SAN BERNARDINO","st":"CA","beds":347,"lat":34.1313,"lon":-117.3225},{"ccn":"050093","name":"SAINT AGNES MEDICAL CENTER","city":"FRESNO","st":"CA","beds":436,"lat":36.8373,"lon":-119.7632},{"ccn":"050099","name":"SAN ANTONIO REGIONAL HOSPITAL","city":"UPLAND","st":"CA","beds":363,"lat":34.1012,"lon":-117.6368},{"ccn":"050100","name":"SHARP MEMORIAL HOSPITAL","city":"SAN DIEGO","st":"CA","beds":881,"lat":32.8002,"lon":-117.1553},{"ccn":"050108","name":"SUTTER MEDICAL CENTER, SACRAMENTO","city":"SACRAMENTO","st":"CA","beds":523,"lat":38.5705,"lon":-121.4703},{"ccn":"050112","name":"SANTA MONICA - UCLA MED CTR & ORTHOPAEDIC HOSPITAL","city":"SANTA MONICA","st":"CA","beds":363,"lat":34.0276,"lon":-118.4862},{"ccn":"050116","name":"NORTHRIDGE HOSPITAL MEDICAL CENTER","city":"NORTHRIDGE","st":"CA","beds":435,"lat":34.2207,"lon":-118.5318},{"ccn":"050121","name":"ADVENTIST HEALTH HANFORD","city":"HANFORD","st":"CA","beds":235,"lat":36.2922,"lon":-119.6227},{"ccn":"050125","name":"REGIONAL MEDICAL CENTER OF SAN JOSE","city":"SAN JOSE","st":"CA","beds":264,"lat":37.3634,"lon":-121.8484},{"ccn":"050128","name":"TRI-CITY MEDICAL CENTER","city":"OCEANSIDE","st":"CA","beds":397,"lat":33.1996,"lon":-117.2988},{"ccn":"050129","name":"ST BERNARDINE MEDICAL CENTER","city":"SAN BERNARDINO","st":"CA","beds":291,"lat":34.1341,"lon":-117.2787},{"ccn":"050133","name":"ADVENTIST HEALTH AND RIDEOUT","city":"MARYSVILLE","st":"CA","beds":173,"lat":39.1387,"lon":-121.595},{"ccn":"050135","name":"SOUTHERN CALIFORNIA HOSPITAL AT HOLLYWOOD","city":"HOLLYWOOD","st":"CA","beds":579,"lat":34.0962,"lon":-118.325},{"ccn":"050140","name":"KAISER FOUNDATION HOSPITAL FONTANA","city":"FONTANA","st":"CA","beds":438,"lat":34.0726,"lon":-117.4356},{"ccn":"050145","name":"COMMUNITY HOSPITAL OF THE MONTEREY PENINSULA","city":"MONTEREY","st":"CA","beds":286,"lat":36.579,"lon":-121.9151},{"ccn":"050167","name":"SAN JOAQUIN GENERAL HOSPITAL","city":"FRENCH CAMP","st":"CA","beds":152,"lat":37.8866,"lon":-121.2846},{"ccn":"050168","name":"PROVIDENCE ST. JUDE MEDICAL CENTER","city":"FULLERTON","st":"CA","beds":301,"lat":33.8935,"lon":-117.9283},{"ccn":"050169","name":"PIH HEALTH HOSPITAL-WHITTIER","city":"WHITTIER","st":"CA","beds":547,"lat":33.9728,"lon":-118.0221},{"ccn":"050174","name":"PROVIDENCE SANTA ROSA MEMORIAL HOSPITAL","city":"SANTA ROSA","st":"CA","beds":346,"lat":38.4429,"lon":-122.7021},{"ccn":"050179","name":"EMANUEL MEDICAL CENTER","city":"TURLOCK","st":"CA","beds":354,"lat":37.5105,"lon":-120.8395},{"ccn":"050180","name":"JOHN MUIR MEDICAL CENTER - WALNUT CREEK CAMPUS","city":"WALNUT CREEK","st":"CA","beds":296,"lat":37.9138,"lon":-122.0427},{"ccn":"050194","name":"WATSONVILLE COMMUNITY HOSPITAL","city":"WATSONVILLE","st":"CA","beds":106,"lat":36.9282,"lon":-121.7936},{"ccn":"050195","name":"WASHINGTON HOSPITAL","city":"FREMONT","st":"CA","beds":265,"lat":37.5585,"lon":-121.9801},{"ccn":"050197","name":"SEQUOIA HOSPITAL","city":"REDWOOD CITY","st":"CA","beds":208,"lat":37.4138,"lon":-122.2946},{"ccn":"050204","name":"PALMDALE REGIONAL MEDICAL CENTER","city":"PALMDALE","st":"CA","beds":157,"lat":34.5843,"lon":-118.1443},{"ccn":"050222","name":"SHARP CHULA VISTA MEDICAL CENTER","city":"CHULA VISTA","st":"CA","beds":306,"lat":32.6175,"lon":-117.0222},{"ccn":"050224","name":"HOAG MEMORIAL HOSPITAL PRESBYTERIAN","city":"NEWPORT BEACH","st":"CA","beds":409,"lat":33.624,"lon":-117.9289},{"ccn":"050228","name":"ZUCKERBERG SAN FRANCISCO GENERAL HOSP & TRAUMA CTR","city":"SAN FRANCISCO","st":"CA","beds":367,"lat":37.7561,"lon":-122.4066},{"ccn":"050231","name":"POMONA VALLEY HOSPITAL MEDICAL CENTER","city":"POMONA","st":"CA","beds":447,"lat":34.0778,"lon":-117.7523},{"ccn":"050235","name":"PROVIDENCE SAINT JOSEPH MEDICAL CTR","city":"BURBANK","st":"CA","beds":360,"lat":34.1559,"lon":-118.3271},{"ccn":"050236","name":"ADVENTIST HEALTH SIMI VALLEY","city":"SIMI VALLEY","st":"CA","beds":149,"lat":34.2887,"lon":-118.744},{"ccn":"050238","name":"USC ARCADIA HOSPITAL","city":"ARCADIA","st":"CA","beds":374,"lat":34.1365,"lon":-118.0409},{"ccn":"050239","name":"GLENDALE ADVENTIST MEDICAL CENTER","city":"GLENDALE","st":"CA","beds":515,"lat":34.1497,"lon":-118.2313},{"ccn":"050242","name":"DOMINICAN HOSPITAL","city":"SANTA CRUZ","st":"CA","beds":222,"lat":36.9882,"lon":-121.9844},{"ccn":"050243","name":"DESERT REGIONAL MEDICAL CENTER","city":"PALM SPRINGS","st":"CA","beds":385,"lat":33.8384,"lon":-116.5455},{"ccn":"050245","name":"ARROWHEAD REGIONAL MEDICAL CENTER","city":"COLTON","st":"CA","beds":456,"lat":34.0755,"lon":-117.3529},{"ccn":"050254","name":"MARSHALL MEDICAL CENTER","city":"PLACERVILLE","st":"CA","beds":111,"lat":38.7249,"lon":-120.7907},{"ccn":"050262","name":"RONALD REAGAN UCLA MEDICAL CENTER","city":"LOS ANGELES","st":"CA","beds":445,"lat":34.0659,"lon":-118.4453},{"ccn":"050272","name":"REDLANDS COMMUNITY HOSPITAL","city":"REDLANDS","st":"CA","beds":229,"lat":34.0437,"lon":-117.2116},{"ccn":"050280","name":"MERCY MEDICAL CENTER REDDING","city":"REDDING","st":"CA","beds":267,"lat":40.5726,"lon":-122.3962},{"ccn":"050290","name":"SAINT JOHN'S HEALTH CENTER","city":"SANTA MONICA","st":"CA","beds":317,"lat":34.0266,"lon":-118.4736},{"ccn":"050292","name":"RIVERSIDE UNIVERSITY HEALTH SYSTEM-MEDICAL CENTER","city":"MORENO VALLEY","st":"CA","beds":439,"lat":33.9102,"lon":-117.1975},{"ccn":"050300","name":"PROVIDENCE ST MARY MEDICAL CENTER","city":"APPLE VALLEY","st":"CA","beds":212,"lat":34.5712,"lon":-117.1331},{"ccn":"050308","name":"EL CAMINO HOSPITAL","city":"MOUNTAIN VIEW","st":"CA","beds":443,"lat":37.3692,"lon":-122.078},{"ccn":"050309","name":"SUTTER ROSEVILLE MEDICAL CENTER","city":"ROSEVILLE","st":"CA","beds":328,"lat":38.7413,"lon":-121.2491},{"ccn":"050315","name":"KERN MEDICAL CENTER","city":"BAKERSFIELD","st":"CA","beds":222,"lat":35.381,"lon":-118.9675},{"ccn":"050320","name":"HIGHLAND HOSPITAL","city":"OAKLAND","st":"CA","beds":613,"lat":37.7995,"lon":-122.2332},{"ccn":"050324","name":"SCRIPPS MEMORIAL HOSPITAL LA JOLLA","city":"LA JOLLA","st":"CA","beds":332,"lat":32.8851,"lon":-117.2227},{"ccn":"050327","name":"LOMA LINDA UNIVERSITY MEDICAL CENTER","city":"LOMA LINDA","st":"CA","beds":533,"lat":34.0499,"lon":-117.2612},{"ccn":"050329","name":"CORONA REGIONAL MEDICAL CENTER","city":"CORONA","st":"CA","beds":240,"lat":33.8733,"lon":-117.5667},{"ccn":"050334","name":"SALINAS VALLEY MEMORIAL HOSPITAL","city":"SALINAS","st":"CA","beds":263,"lat":36.6601,"lon":-121.6472},{"ccn":"050348","name":"UNIVERSITY OF CALIFORNIA IRVINE MEDICAL CENTER","city":"ORANGE","st":"CA","beds":415,"lat":33.7889,"lon":-117.8908},{"ccn":"050350","name":"ADVENTIST HEALTH WHITE MEMORIAL MONTEBELLO","city":"MONTEBELLO","st":"CA","beds":224,"lat":34.0159,"lon":-118.1002},{"ccn":"050360","name":"MARINHEALTH MEDICAL CENTER","city":"GREENBRAE","st":"CA","beds":325,"lat":37.9476,"lon":-122.5375},{"ccn":"050373","name":"LOS ANGELES GENERAL MEDICAL CENTER","city":"LOS ANGELES","st":"CA","beds":676,"lat":34.0571,"lon":-118.2084},{"ccn":"050376","name":"LAC/HARBOR-UCLA MED CENTER","city":"TORRANCE","st":"CA","beds":553,"lat":33.8315,"lon":-118.2921},{"ccn":"050378","name":"PACIFICA HOSPITAL OF THE VALLEY","city":"SUN VALLEY","st":"CA","beds":242,"lat":34.2408,"lon":-118.3955},{"ccn":"050380","name":"GOOD SAMARITAN HOSPITAL","city":"SAN JOSE","st":"CA","beds":404,"lat":37.2512,"lon":-121.9455},{"ccn":"050382","name":"EMANATE HEALTH INTER-COMMUNITY HOSPITAL","city":"COVINA","st":"CA","beds":193,"lat":34.09,"lon":-117.8927},{"ccn":"050390","name":"HEMET GLOBAL MEDICAL CENTER","city":"HEMET","st":"CA","beds":433,"lat":33.7512,"lon":-116.9606},{"ccn":"050393","name":"PIH HEALTH DOWNEY HOSPITAL","city":"DOWNEY","st":"CA","beds":199,"lat":33.9352,"lon":-118.1319},{"ccn":"050394","name":"COMMUNITY MEMORIAL HOSPITAL - VENTURA","city":"VENTURA","st":"CA","beds":242,"lat":34.2745,"lon":-119.2573},{"ccn":"050424","name":"SCRIPPS GREEN HOSPITAL","city":"LA JOLLA","st":"CA","beds":173,"lat":32.8976,"lon":-117.2419},{"ccn":"050425","name":"KAISER FOUNDATION HOSPITAL - SACRAMENTO","city":"SACRAMENTO","st":"CA","beds":628,"lat":38.602,"lon":-121.3923},{"ccn":"050438","name":"HUNTINGTON HOSPITAL","city":"PASADENA","st":"CA","beds":625,"lat":34.1357,"lon":-118.154},{"ccn":"050441","name":"STANFORD HEALTH CARE","city":"STANFORD","st":"CA","beds":613,"lat":37.4183,"lon":-122.1709},{"ccn":"050444","name":"MERCY MEDICAL CENTER","city":"MERCED","st":"CA","beds":186,"lat":37.3404,"lon":-120.4652},{"ccn":"050454","name":"UCSF MEDICAL CENTER","city":"SAN FRANCISCO","st":"CA","beds":1019,"lat":37.7629,"lon":-122.4596},{"ccn":"050455","name":"ADVENTIST HEALTH BAKERSFIELD","city":"BAKERSFIELD","st":"CA","beds":255,"lat":35.3831,"lon":-119.0188},{"ccn":"050457","name":"ST MARY'S MEDICAL CENTER","city":"SAN FRANCISCO","st":"CA","beds":275,"lat":37.7738,"lon":-122.4544},{"ccn":"050464","name":"DOCTORS MEDICAL CENTER","city":"MODESTO","st":"CA","beds":461,"lat":37.665,"lon":-120.9963},{"ccn":"050492","name":"CLOVIS COMMUNITY MEDICAL CENTER","city":"CLOVIS","st":"CA","beds":208,"lat":36.8245,"lon":-119.68},{"ccn":"050496","name":"JOHN MUIR MEDICAL CENTER - CONCORD CAMPUS","city":"CONCORD","st":"CA","beds":303,"lat":37.9833,"lon":-122.0344},{"ccn":"050498","name":"SUTTER AUBURN FAITH HOSPITAL","city":"AUBURN","st":"CA","beds":97,"lat":38.9444,"lon":-121.1011},{"ccn":"050503","name":"SCRIPPS MEMORIAL HOSPITAL - ENCINITAS","city":"ENCINITAS","st":"CA","beds":158,"lat":33.0363,"lon":-117.2854},{"ccn":"050506","name":"TENET HEALTH CENTRAL COAST SIERRA VISTA RMC","city":"SAN LUIS OBISPO","st":"CA","beds":186,"lat":35.291,"lon":-120.6662},{"ccn":"050516","name":"MERCY SAN JUAN MEDICAL CENTER","city":"CARMICHAEL","st":"CA","beds":370,"lat":38.6681,"lon":-121.3139},{"ccn":"050517","name":"VICTOR VALLEY GLOBAL MEDICAL CENTER","city":"VICTORVILLE","st":"CA","beds":101,"lat":34.528,"lon":-117.2926},{"ccn":"050526","name":"HUNTINGTON BEACH HOSPITAL","city":"HUNTINGTON BEACH","st":"CA","beds":131,"lat":33.7042,"lon":-117.989},{"ccn":"050534","name":"JOHN F KENNEDY MEMORIAL HOSPITAL","city":"INDIO","st":"CA","beds":156,"lat":33.7061,"lon":-116.2339},{"ccn":"050549","name":"LOS ROBLES HOSPITAL & MEDICAL CENTER","city":"THOUSAND OAKS","st":"CA","beds":273,"lat":34.2065,"lon":-118.8826},{"ccn":"050551","name":"UCI HEALTH ? LOS ALAMITOS","city":"LOS ALAMITOS","st":"CA","beds":146,"lat":33.8032,"lon":-118.0672},{"ccn":"050557","name":"MEMORIAL MEDICAL CENTER","city":"MODESTO","st":"CA","beds":275,"lat":37.6685,"lon":-120.9756},{"ccn":"050567","name":"PROVIDENCE MISSION HOSPITAL","city":"MISSION VIEJO","st":"CA","beds":565,"lat":33.5628,"lon":-117.6677},{"ccn":"050573","name":"EISENHOWER MEDICAL CENTER","city":"RANCHO MIRAGE","st":"CA","beds":289,"lat":33.7686,"lon":-116.43},{"ccn":"050581","name":"UCI HEALTH-LAKEWOOD","city":"LAKEWOOD","st":"CA","beds":170,"lat":33.8602,"lon":-118.1493},{"ccn":"050597","name":"EMANATE HEALTH FOOTHILL PRESBYTERIAN HOSPITAL","city":"GLENDORA","st":"CA","beds":106,"lat":34.1332,"lon":-117.8725},{"ccn":"050599","name":"UNIVERSITY OF CALIFORNIA DAVIS MEDICAL CENTER","city":"SACRAMENTO","st":"CA","beds":631,"lat":38.5539,"lon":-121.4569},{"ccn":"050609","name":"KAISER FOUNDATION HOSPITAL - ORANGE COUNTY - ANAHE","city":"ANAHEIM","st":"CA","beds":262,"lat":33.8541,"lon":-117.8454},{"ccn":"050674","name":"KAISER FOUNDATION HOSP SO SACRAMENTO","city":"SACRAMENTO","st":"CA","beds":241,"lat":38.472,"lon":-121.4225},{"ccn":"050678","name":"MEMORIALCARE ORANGE COAST MEDICAL CENTER","city":"FOUNTAIN VALLEY","st":"CA","beds":210,"lat":33.7016,"lon":-117.9564},{"ccn":"050689","name":"SAN RAMON REGIONAL MEDICAL CENTER","city":"SAN RAMON","st":"CA","beds":123,"lat":37.7555,"lon":-121.973},{"ccn":"050701","name":"SOUTHWEST HEALTHCARE RANCHO SPRINGS HOSPITAL","city":"MURRIETA","st":"CA","beds":250,"lat":33.5578,"lon":-117.1848},{"ccn":"050709","name":"DESERT VALLEY HOSPITAL","city":"VICTORVILLE","st":"CA","beds":148,"lat":34.471,"lon":-117.2959},{"ccn":"050710","name":"KAISER FOUNDATION HOSPITAL - FRESNO","city":"FRESNO","st":"CA","beds":169,"lat":36.8411,"lon":-119.7823},{"ccn":"050746","name":"ORANGE COUNTY GLOBAL MEDICAL CENTER","city":"SANTA ANA","st":"CA","beds":282,"lat":33.754,"lon":-117.8341},{"ccn":"050748","name":"KAISER FOUNDATION HOSPITAL MANTECA","city":"MANTECA","st":"CA","beds":251,"lat":37.7974,"lon":-121.2458},{"ccn":"050755","name":"SHERMAN OAKS HOSPITAL","city":"SHERMAN OAKS","st":"CA","beds":153,"lat":34.16,"lon":-118.4488},{"ccn":"050758","name":"MONTCLAIR HOSPITAL MEDICAL CENTER","city":"MONTCLAIR","st":"CA","beds":106,"lat":34.0777,"lon":-117.6951},{"ccn":"050761","name":"PROVIDENCE CEDARS SINAI TARZANA MEDICAL CENTER","city":"TARZANA","st":"CA","beds":245,"lat":34.1698,"lon":-118.5312},{"ccn":"050764","name":"SHASTA REGIONAL MEDICAL CENTER","city":"REDDING","st":"CA","beds":246,"lat":40.5853,"lon":-122.387},{"ccn":"050770","name":"LOMA LINDA UNIVERSITY MEDICAL CENTER-MURRIETA","city":"MURRIETA","st":"CA","beds":106,"lat":33.6135,"lon":-117.1697},{"ccn":"050772","name":"KAISER FOUNDATION HOSPITAL - ROSEVILLE","city":"ROSEVILLE","st":"CA","beds":340,"lat":38.7483,"lon":-121.2477},{"ccn":"050775","name":"TEMECULA VALLEY HOSPITAL","city":"TEMECULA","st":"CA","beds":140,"lat":33.4793,"lon":-117.1056},{"ccn":"051319","name":"MERCY MEDICAL CENTER MT SHASTA","city":"MOUNT SHASTA","st":"CA","beds":33,"lat":41.3181,"lon":-122.3219},{"ccn":"051331","name":"SANTA YNEZ VALLEY COTTAGE HOSPITAL","city":"SOLVANG","st":"CA","beds":11,"lat":34.6024,"lon":-120.1274},{"ccn":"060001","name":"BANNER NORTH COLORADO MEDICAL CENTER","city":"GREELEY","st":"CO","beds":378,"lat":40.4429,"lon":-104.6731},{"ccn":"060003","name":"LONGMONT UNITED HOSPITAL","city":"LONGMONT","st":"CO","beds":186,"lat":40.1814,"lon":-105.1269},{"ccn":"060004","name":"INTERMOUNTAIN HEALTH PLATTE VALLEY HOSPITAL","city":"BRIGHTON","st":"CO","beds":98,"lat":39.9622,"lon":-104.8079},{"ccn":"060006","name":"MONTROSE REGIONAL HEALTH","city":"MONTROSE","st":"CO","beds":75,"lat":38.4801,"lon":-107.8698},{"ccn":"060009","name":"LUTHERAN MEDICAL CENTER","city":"WHEAT RIDGE","st":"CO","beds":338,"lat":39.7693,"lon":-105.0897},{"ccn":"060010","name":"POUDRE VALLEY HOSPITAL","city":"FORT COLLINS","st":"CO","beds":255,"lat":40.5722,"lon":-105.0578},{"ccn":"060011","name":"DENVER HEALTH MEDICAL CENTER","city":"DENVER","st":"CO","beds":555,"lat":39.7281,"lon":-104.9903},{"ccn":"060014","name":"HCA HEALTHONE PRESBYTERIAN ST LUKES","city":"DENVER","st":"CO","beds":680,"lat":39.7461,"lon":-104.9669},{"ccn":"060015","name":"ST ANTHONY HOSPITAL","city":"LAKEWOOD","st":"CO","beds":237,"lat":39.7179,"lon":-105.1275},{"ccn":"060020","name":"PARKVIEW MEDICAL CENTER, INC","city":"PUEBLO","st":"CO","beds":350,"lat":38.2799,"lon":-104.6315},{"ccn":"060022","name":"UNIVERSITY COLO HEALTH MEMORIAL HOSPITAL CENTRAL","city":"COLORADO SPRINGS","st":"CO","beds":583,"lat":38.8389,"lon":-104.7993},{"ccn":"060023","name":"INTERMOUNTAIN HEALTH ST. MARY'S REGIONAL HOSPITAL","city":"GRAND JUNCTION","st":"CO","beds":346,"lat":39.0906,"lon":-108.5615},{"ccn":"060024","name":"UNIVERSITY OF COLORADO HOSPITAL AUTHORITY","city":"AURORA","st":"CO","beds":858,"lat":39.7414,"lon":-104.8421},{"ccn":"060027","name":"FOOTHILLS HOSPITAL","city":"BOULDER","st":"CO","beds":211,"lat":40.0148,"lon":-105.2396},{"ccn":"060028","name":"INTERMOUNTAIN HEALTH SAINT JOSEPH HOSPITAL","city":"DENVER","st":"CO","beds":400,"lat":39.7311,"lon":-104.9707},{"ccn":"060030","name":"BANNER MCKEE MEDICAL CENTER","city":"LOVELAND","st":"CO","beds":115,"lat":40.4127,"lon":-105.0536},{"ccn":"060032","name":"HCA HEALTHONE ROSE","city":"DENVER","st":"CO","beds":422,"lat":39.7311,"lon":-104.9344},{"ccn":"060034","name":"SWEDISH MEDICAL CENTER","city":"ENGLEWOOD","st":"CO","beds":408,"lat":39.6532,"lon":-104.9803},{"ccn":"060064","name":"ADVENTHEALTH PORTER","city":"DENVER","st":"CO","beds":368,"lat":39.6708,"lon":-104.9735},{"ccn":"060065","name":"HCA HEALTHONE MOUNTAIN RIDGE","city":"THORNTON","st":"CO","beds":157,"lat":39.8641,"lon":-104.9845},{"ccn":"060075","name":"VALLEY VIEW HOSPITAL ASSOCIATION","city":"GLENWOOD SPRINGS","st":"CO","beds":78,"lat":39.5328,"lon":-107.3227},{"ccn":"060100","name":"HCA HEALTHONE AURORA","city":"AURORA","st":"CO","beds":346,"lat":39.6895,"lon":-104.8312},{"ccn":"060103","name":"ADVENTHEALTH AVISTA","city":"LOUISVILLE","st":"CO","beds":66,"lat":39.9519,"lon":-105.1496},{"ccn":"060104","name":"ST ANTHONY NORTH HOSPITAL","city":"WESTMINSTER","st":"CO","beds":121,"lat":39.9541,"lon":-104.9937},{"ccn":"060107","name":"NATIONAL JEWISH HEALTH","city":"DENVER","st":"CO","beds":46,"lat":39.7384,"lon":-104.9428},{"ccn":"060112","name":"HCA HEALTHONE SKY RIDGE","city":"LONE TREE","st":"CO","beds":304,"lat":39.528,"lon":-104.8729},{"ccn":"060113","name":"ADVENTHEALTH LITTLETON","city":"LITTLETON","st":"CO","beds":231,"lat":39.5775,"lon":-104.9883},{"ccn":"060114","name":"ADVENTHEALTH PARKER","city":"PARKER","st":"CO","beds":104,"lat":39.55,"lon":-104.771},{"ccn":"060116","name":"INTERMOUNTAIN HEALTH GOOD SAMARITAN HOSPITAL","city":"LAFAYETTE","st":"CO","beds":234,"lat":39.9723,"lon":-105.0885},{"ccn":"060119","name":"MEDICAL CENTER OF THE ROCKIES","city":"LOVELAND","st":"CO","beds":180,"lat":40.4575,"lon":-105.0508},{"ccn":"060125","name":"ADVENTHEALTH CASTLE ROCK","city":"CASTLE ROCK","st":"CO","beds":50,"lat":39.4021,"lon":-104.8847},{"ccn":"060128","name":"LONGS PEAK HOSPITAL","city":"LONGMONT","st":"CO","beds":83,"lat":40.1524,"lon":-105.1209},{"ccn":"060131","name":"UCHEALTH GREELEY HOSPITAL","city":"GREELEY","st":"CO","beds":88,"lat":40.39,"lon":-104.7893},{"ccn":"060132","name":"UCHEALTH HIGHLANDS RANCH HOSPITAL","city":"HIGHLANDS RANCH","st":"CO","beds":87,"lat":39.5534,"lon":-105.0057},{"ccn":"070002","name":"SAINT FRANCIS HOSPITAL & MEDICAL CENTER","city":"HARTFORD","st":"CT","beds":617,"lat":41.7749,"lon":-72.6995},{"ccn":"070005","name":"WATERBURY HOSPITAL","city":"WATERBURY","st":"CT","beds":357,"lat":41.5581,"lon":-73.0601},{"ccn":"070007","name":"LAWRENCE & MEMORIAL HOSPITAL","city":"NEW LONDON","st":"CT","beds":280,"lat":41.337,"lon":-72.1037},{"ccn":"070010","name":"BRIDGEPORT HOSPITAL","city":"BRIDGEPORT","st":"CT","beds":497,"lat":41.1888,"lon":-73.1657},{"ccn":"070016","name":"SAINT MARY'S HOSPITAL","city":"WATERBURY","st":"CT","beds":347,"lat":41.5322,"lon":-73.0251},{"ccn":"070020","name":"MIDDLESEX HOSPITAL","city":"MIDDLETOWN","st":"CT","beds":275,"lat":41.5486,"lon":-72.6568},{"ccn":"070024","name":"WILLIAM W BACKUS HOSPITAL","city":"NORWICH","st":"CT","beds":213,"lat":41.548,"lon":-72.0895},{"ccn":"070025","name":"HARTFORD HOSPITAL","city":"HARTFORD","st":"CT","beds":819,"lat":41.7539,"lon":-72.6807},{"ccn":"070028","name":"ST VINCENT'S MEDICAL CENTER","city":"BRIDGEPORT","st":"CT","beds":397,"lat":41.2001,"lon":-73.2025},{"ccn":"070033","name":"DANBURY HOSPITAL","city":"DANBURY","st":"CT","beds":345,"lat":41.4062,"lon":-73.446},{"ccn":"070034","name":"NORWALK HOSPITAL","city":"NORWALK","st":"CT","beds":328,"lat":41.1107,"lon":-73.4205},{"ccn":"070035","name":"HOSPITAL OF CENTRAL CONNECTICUT, THE","city":"NEW BRITAIN","st":"CT","beds":330,"lat":41.6621,"lon":-72.7854},{"ccn":"070036","name":"JOHN DEMPSEY HOSPITAL","city":"FARMINGTON","st":"CT","beds":204,"lat":41.7311,"lon":-72.8571},{"ccn":"080001","name":"CHRISTIANACARE","city":"NEWARK","st":"DE","beds":1196,"lat":39.691,"lon":-75.6714},{"ccn":"080003","name":"ST FRANCIS HOSPITAL","city":"WILMINGTON","st":"DE","beds":395,"lat":39.7495,"lon":-75.5666},{"ccn":"080004","name":"BAYHEALTH MEDICAL CENTER, KENT CAMPUS","city":"DOVER","st":"DE","beds":304,"lat":39.1516,"lon":-75.5223},{"ccn":"080006","name":"TIDALHEALTH NANTICOKE, INC.","city":"SEAFORD","st":"DE","beds":119,"lat":38.6423,"lon":-75.6053},{"ccn":"080007","name":"BEEBE MEDICAL CENTER","city":"LEWES","st":"DE","beds":155,"lat":38.7713,"lon":-75.1424},{"ccn":"090001","name":"GEORGE WASHINGTON UNIV HOSPITAL","city":"WASHINGTON","st":"DC","beds":371,"lat":38.9008,"lon":-77.0502},{"ccn":"090004","name":"MEDSTAR GEORGETOWN UNIVERSITY HOSPITAL","city":"WASHINGTON","st":"DC","beds":535,"lat":38.9125,"lon":-77.0749},{"ccn":"100001","name":"UF HEALTH JACKSONVILLE","city":"JACKSONVILLE","st":"FL","beds":715,"lat":30.3468,"lon":-81.6643},{"ccn":"100002","name":"BETHESDA HOSPITAL EAST","city":"BOYNTON BEACH","st":"FL","beds":481,"lat":26.5037,"lon":-80.069},{"ccn":"100006","name":"ORLANDO HEALTH ORLANDO REGIONAL MEDICAL CENTER","city":"ORLANDO","st":"FL","beds":2024,"lat":28.5268,"lon":-81.378},{"ccn":"100007","name":"ADVENTHEALTH ORLANDO","city":"ORLANDO","st":"FL","beds":3289,"lat":28.5742,"lon":-81.3712},{"ccn":"100008","name":"BAPTIST HOSPITAL OF MIAMI","city":"MIAMI","st":"FL","beds":948,"lat":25.6879,"lon":-80.3366},{"ccn":"100012","name":"LEE MEMORIAL HOSPITAL","city":"FORT MYERS","st":"FL","beds":895,"lat":26.6267,"lon":-81.8724},{"ccn":"100014","name":"ADVENTHEALTH NEW SMYRNA BEACH","city":"NEW SMYRNA BEACH","st":"FL","beds":109,"lat":29.0216,"lon":-80.923},{"ccn":"100017","name":"HALIFAX HEALTH MEDICAL CENTER","city":"DAYTONA BEACH","st":"FL","beds":673,"lat":29.1995,"lon":-81.0547},{"ccn":"100018","name":"NAPLES COMMUNITY HOSPITAL","city":"NAPLES","st":"FL","beds":713,"lat":26.1503,"lon":-81.7993},{"ccn":"100019","name":"HOLMES REGIONAL MEDICAL CENTER","city":"MELBOURNE","st":"FL","beds":514,"lat":28.0878,"lon":-80.6136},{"ccn":"100022","name":"JACKSON MEMORIAL HOSPITAL","city":"MIAMI","st":"FL","beds":2255,"lat":25.7906,"lon":-80.215},{"ccn":"100023","name":"HCA FLORIDA CITRUS HOSPITAL","city":"INVERNESS","st":"FL","beds":204,"lat":28.8322,"lon":-82.3353},{"ccn":"100025","name":"ASCENSION SACRED HEART PENSACOLA","city":"PENSACOLA","st":"FL","beds":547,"lat":30.4742,"lon":-87.2118},{"ccn":"100028","name":"PARRISH MEDICAL CENTER","city":"TITUSVILLE","st":"FL","beds":208,"lat":28.6282,"lon":-80.8243},{"ccn":"100029","name":"NORTH SHORE MEDICAL CENTER","city":"MIAMI","st":"FL","beds":816,"lat":25.8616,"lon":-80.2148},{"ccn":"100030","name":"ORLANDO HEALTH-HEALTH CENTRAL HOSPITAL","city":"OCOEE","st":"FL","beds":216,"lat":28.5516,"lon":-81.5263},{"ccn":"100032","name":"ORLANDO HEALTH BAYFRONT HOSPITAL","city":"SAINT PETERSBURG","st":"FL","beds":480,"lat":27.7635,"lon":-82.6418},{"ccn":"100035","name":"MANATEE MEMORIAL HOSPITAL","city":"BRADENTON","st":"FL","beds":319,"lat":27.4977,"lon":-82.5613},{"ccn":"100039","name":"BROWARD HEALTH MEDICAL CENTER","city":"FORT LAUDERDALE","st":"FL","beds":723,"lat":26.1019,"lon":-80.1423},{"ccn":"100040","name":"ASCENSION ST VINCENT'S RIVERSIDE","city":"JACKSONVILLE","st":"FL","beds":584,"lat":30.317,"lon":-81.6808},{"ccn":"100045","name":"ADVENTHEALTH DELAND","city":"DELAND","st":"FL","beds":170,"lat":29.0427,"lon":-81.3164},{"ccn":"100046","name":"ADVENTHEALTH ZEPHYRHILLS","city":"ZEPHYRHILLS","st":"FL","beds":139,"lat":28.234,"lon":-82.2214},{"ccn":"100047","name":"SHOREPOINT HEALTH PUNTA GORDA","city":"PUNTA GORDA","st":"FL","beds":208,"lat":26.9413,"lon":-82.0406},{"ccn":"100049","name":"HCA FLORIDA HIGHLANDS HOSPITAL","city":"SEBRING","st":"FL","beds":126,"lat":27.467,"lon":-81.4337},{"ccn":"100052","name":"WINTER HAVEN HOSPITAL","city":"WINTER HAVEN","st":"FL","beds":508,"lat":28.0276,"lon":-81.7268},{"ccn":"100062","name":"ADVENTHEALTH OCALA","city":"OCALA","st":"FL","beds":385,"lat":29.174,"lon":-82.1379},{"ccn":"100063","name":"MORTON PLANT NORTH BAY HOSPITAL","city":"NEW PORT RICHEY","st":"FL","beds":222,"lat":28.2534,"lon":-82.7153},{"ccn":"100067","name":"ST ANTHONYS HOSPITAL","city":"SAINT PETERSBURG","st":"FL","beds":448,"lat":27.7629,"lon":-82.651},{"ccn":"100071","name":"TAMPA GENERAL HOSPITAL BROOKSVILLE","city":"BROOKSVILLE","st":"FL","beds":244,"lat":28.5886,"lon":-82.3512},{"ccn":"100072","name":"ADVENTHEALTH FISH MEMORIAL","city":"ORANGE CITY","st":"FL","beds":175,"lat":28.9113,"lon":-81.2836},{"ccn":"100073","name":"HOLY CROSS HOSPITAL","city":"FORT LAUDERDALE","st":"FL","beds":557,"lat":26.1856,"lon":-80.1176},{"ccn":"100075","name":"ST JOSEPHS HOSPITAL","city":"TAMPA","st":"FL","beds":1390,"lat":27.9814,"lon":-82.491},{"ccn":"100077","name":"SHOREPOINT HEALTH PORT CHARLOTTE","city":"PORT CHARLOTTE","st":"FL","beds":254,"lat":26.9897,"lon":-82.0967},{"ccn":"100079","name":"UNIV OF MIAMI HOSPITAL AND CLINICS-SYLVESTER COMPR","city":"MIAMI","st":"FL","beds":700,"lat":25.7885,"lon":-80.2149},{"ccn":"100080","name":"HCA FLORIDA JFK HOSPITAL","city":"ATLANTIS","st":"FL","beds":796,"lat":26.6006,"lon":-80.0898},{"ccn":"100084","name":"UF HEALTH LEESBURG HOSPITAL","city":"LEESBURG","st":"FL","beds":330,"lat":28.8066,"lon":-81.8696},{"ccn":"100087","name":"SARASOTA MEMORIAL HOSPITAL","city":"SARASOTA","st":"FL","beds":897,"lat":27.3182,"lon":-82.5297},{"ccn":"100088","name":"BAPTIST MEDICAL CENTER JACKSONVILLE","city":"JACKSONVILLE","st":"FL","beds":1229,"lat":30.3162,"lon":-81.6643},{"ccn":"100090","name":"FLAGLER HOSPITAL","city":"SAINT AUGUSTINE","st":"FL","beds":335,"lat":29.8625,"lon":-81.3181},{"ccn":"100092","name":"ORLANDO HEALTH ROCKLEDGE HOSPITAL","city":"ROCKLEDGE","st":"FL","beds":298,"lat":28.3346,"lon":-80.7245},{"ccn":"100099","name":"ADVENTHEALTH LAKE WALES","city":"LAKE WALES","st":"FL","beds":118,"lat":27.8962,"lon":-81.5647},{"ccn":"100105","name":"CLEVELAND CLINIC INDIAN RIVER HOSPITAL","city":"VERO BEACH","st":"FL","beds":332,"lat":27.6569,"lon":-80.3942},{"ccn":"100109","name":"ADVENTHEALTH SEBRING","city":"SEBRING","st":"FL","beds":204,"lat":27.536,"lon":-81.5102},{"ccn":"100113","name":"UF HEALTH SHANDS HOSPITAL","city":"GAINESVILLE","st":"FL","beds":1054,"lat":29.6395,"lon":-82.3426},{"ccn":"100118","name":"ADVENTHEALTH PALM COAST","city":"PALM COAST","st":"FL","beds":99,"lat":29.4777,"lon":-81.1902},{"ccn":"100122","name":"NORTH OKALOOSA MEDICAL CENTER","city":"CRESTVIEW","st":"FL","beds":110,"lat":30.7369,"lon":-86.563},{"ccn":"100124","name":"SANTA ROSA MEDICAL CENTER","city":"MILTON","st":"FL","beds":129,"lat":30.6323,"lon":-87.0676},{"ccn":"100127","name":"MORTON PLANT HOSPITAL","city":"CLEARWATER","st":"FL","beds":687,"lat":27.9519,"lon":-82.8039},{"ccn":"100128","name":"TAMPA GENERAL HOSPITAL","city":"TAMPA","st":"FL","beds":1041,"lat":27.9175,"lon":-82.4523},{"ccn":"100131","name":"HCA FLORIDA AVENTURA HOSPITAL","city":"AVENTURA","st":"FL","beds":493,"lat":25.9691,"lon":-80.1445},{"ccn":"100135","name":"TALLAHASSEE MEMORIAL HOSPITAL","city":"TALLAHASSEE","st":"FL","beds":772,"lat":30.4556,"lon":-84.2624},{"ccn":"100137","name":"ADVENTHEALTH HEART OF FLORIDA","city":"DAVENPORT","st":"FL","beds":268,"lat":28.1796,"lon":-81.64},{"ccn":"100154","name":"SOUTH MIAMI HOSPITAL","city":"SOUTH MIAMI","st":"FL","beds":436,"lat":25.703,"lon":-80.2934},{"ccn":"100156","name":"HCA FLORIDA LAKE CITY HOSPITAL","city":"LAKE CITY","st":"FL","beds":115,"lat":30.1762,"lon":-82.6852},{"ccn":"100157","name":"LAKELAND REGIONAL MEDICAL CENTER","city":"LAKELAND","st":"FL","beds":892,"lat":28.0612,"lon":-81.9533},{"ccn":"100161","name":"HCA FLORIDA LAKE MONROE HOSPITAL","city":"SANFORD","st":"FL","beds":221,"lat":28.8162,"lon":-81.2837},{"ccn":"100166","name":"HCA FLORIDA SARASOTA DOCTORS HOSPITAL","city":"SARASOTA","st":"FL","beds":155,"lat":27.2989,"lon":-82.4553},{"ccn":"100173","name":"ADVENTHEALTH TAMPA","city":"TAMPA","st":"FL","beds":626,"lat":28.0692,"lon":-82.4245},{"ccn":"100176","name":"PALM BEACH GARDENS MEDICAL CENTER","city":"PALM BEACH GARDENS","st":"FL","beds":199,"lat":26.8306,"lon":-80.0875},{"ccn":"100179","name":"HCA FLORIDA MEMORIAL HOSPITAL","city":"JACKSONVILLE","st":"FL","beds":454,"lat":30.2874,"lon":-81.6024},{"ccn":"100191","name":"HCA FLORIDA TRINITY HOSPITAL","city":"TRINITY","st":"FL","beds":340,"lat":28.206,"lon":-82.6603},{"ccn":"100204","name":"HCA FLORIDA NORTH FLORIDA HOSPITAL","city":"GAINESVILLE","st":"FL","beds":528,"lat":29.6598,"lon":-82.4107},{"ccn":"100206","name":"HCA FLORIDA SOUTH TAMPA HOSPITAL","city":"TAMPA","st":"FL","beds":374,"lat":27.9375,"lon":-82.4893},{"ccn":"100209","name":"HCA FLORIDA KENDALL HOSPITAL","city":"MIAMI","st":"FL","beds":447,"lat":25.7366,"lon":-80.4068},{"ccn":"100211","name":"ADVENTHEALTH DADE CITY","city":"DADE CITY","st":"FL","beds":120,"lat":28.349,"lon":-82.2016},{"ccn":"100212","name":"HCA FLORIDA OCALA HOSPITAL","city":"OCALA","st":"FL","beds":545,"lat":29.1752,"lon":-82.1378},{"ccn":"100213","name":"HCA FLORIDA BLAKE HOSPITAL","city":"BRADENTON","st":"FL","beds":383,"lat":27.4819,"lon":-82.6205},{"ccn":"100217","name":"ORLANDO HEALTH SEBASTIAN RIVER HOSPITAL","city":"SEBASTIAN","st":"FL","beds":145,"lat":27.8461,"lon":-80.4887},{"ccn":"100220","name":"GULF COAST MEDICAL CENTER","city":"FORT MYERS","st":"FL","beds":699,"lat":26.5432,"lon":-81.8516},{"ccn":"100223","name":"HCA FLORIDA FORT WALTON-DESTIN HOSPITAL","city":"FORT WALTON BEACH","st":"FL","beds":326,"lat":30.4532,"lon":-86.6322},{"ccn":"100226","name":"HCA FLORIDA ORANGE PARK HOSPITAL","city":"ORANGE PARK","st":"FL","beds":433,"lat":30.165,"lon":-81.736},{"ccn":"100232","name":"HCA FLORIDA PUTNAM HOSPITAL","city":"PALATKA","st":"FL","beds":99,"lat":29.6423,"lon":-81.6934},{"ccn":"100236","name":"HCA FLORIDA FAWCETT HOSPITAL","city":"PORT CHARLOTTE","st":"FL","beds":265,"lat":26.9879,"lon":-82.0969},{"ccn":"100238","name":"HCA FLORIDA NORTHSIDE HOSPITAL","city":"SAINT PETERSBURG","st":"FL","beds":288,"lat":27.8262,"lon":-82.7},{"ccn":"100242","name":"HCA FLORIDA GULF COAST HOSPITAL","city":"PANAMA CITY","st":"FL","beds":282,"lat":30.1896,"lon":-85.6673},{"ccn":"100243","name":"HCA FLORIDA BRANDON HOSPITAL","city":"BRANDON","st":"FL","beds":479,"lat":27.9339,"lon":-82.2883},{"ccn":"100244","name":"CAPE CORAL HOSPITAL","city":"CAPE CORAL","st":"FL","beds":303,"lat":26.6409,"lon":-81.941},{"ccn":"100248","name":"HCA FLORIDA LARGO HOSPITAL","city":"LARGO","st":"FL","beds":455,"lat":27.9149,"lon":-82.8027},{"ccn":"100254","name":"HCA FLORIDA CAPITAL HOSPITAL","city":"TALLAHASSEE","st":"FL","beds":288,"lat":30.4747,"lon":-84.2316},{"ccn":"100258","name":"DELRAY MEDICAL CENTER","city":"DELRAY BEACH","st":"FL","beds":536,"lat":26.4393,"lon":-80.1274},{"ccn":"100260","name":"HCA FLORIDA ST LUCIE HOSPITAL","city":"PORT SAINT LUCIE","st":"FL","beds":222,"lat":27.2917,"lon":-80.2939},{"ccn":"100264","name":"HCA FLORIDA OAK HILL HOSPITAL","city":"BROOKSVILLE","st":"FL","beds":350,"lat":28.5334,"lon":-82.5345},{"ccn":"100267","name":"HCA FLORIDA ENGLEWOOD HOSPITAL","city":"ENGLEWOOD","st":"FL","beds":100,"lat":26.949,"lon":-82.3279},{"ccn":"100269","name":"HCA FLORIDA PALMS WEST HOSPITAL","city":"LOXAHATCHEE","st":"FL","beds":206,"lat":26.682,"lon":-80.2515},{"ccn":"100281","name":"MEMORIAL HOSPITAL WEST","city":"PEMBROKE PINES","st":"FL","beds":366,"lat":26.0147,"lon":-80.3402},{"ccn":"100286","name":"PHYSICIANS REGIONAL MEDICAL CENTER - PINE RIDGE","city":"NAPLES","st":"FL","beds":327,"lat":26.2694,"lon":-81.713},{"ccn":"100288","name":"ST MARY'S MEDICAL CENTER","city":"WEST PALM BEACH","st":"FL","beds":413,"lat":26.7532,"lon":-80.0627},{"ccn":"100289","name":"CLEVELAND CLINIC HOSPITAL","city":"WESTON","st":"FL","beds":236,"lat":26.0814,"lon":-80.3673},{"ccn":"100290","name":"UF HEALTH SPANISH PLAINES HOSPITAL","city":"THE VILLAGES","st":"FL","beds":307,"lat":28.9495,"lon":-81.9585},{"ccn":"100291","name":"ORLANDO HEALTH MELBOURNE HOSPITAL","city":"MELBOURNE","st":"FL","beds":119,"lat":28.1094,"lon":-80.6727},{"ccn":"100296","name":"DOCTORS HOSPITAL","city":"CORAL GABLES","st":"FL","beds":281,"lat":25.7246,"lon":-80.2732},{"ccn":"100299","name":"LAKEWOOD RANCH MEDICAL CENTER","city":"BRADENTON","st":"FL","beds":120,"lat":27.3908,"lon":-82.4334},{"ccn":"100307","name":"ASCENSION ST VINCENT'S SOUTHSIDE","city":"JACKSONVILLE","st":"FL","beds":295,"lat":30.2561,"lon":-81.5824},{"ccn":"100316","name":"PALM BAY HOSPITAL","city":"PALM BAY","st":"FL","beds":152,"lat":27.9984,"lon":-80.6117},{"ccn":"100319","name":"ADVENTHEALTH WESLEY CHAPEL","city":"WESLEY CHAPEL","st":"FL","beds":169,"lat":28.1937,"lon":-82.3534},{"ccn":"100320","name":"HCA FLORIDA POINCIANA HOSPITAL","city":"KISSIMMEE","st":"FL","beds":94,"lat":28.1921,"lon":-81.4854},{"ccn":"100321","name":"ASCENSION ST VINCENT'S CLAY COUNTY","city":"MIDDLEBURG","st":"FL","beds":134,"lat":30.0833,"lon":-81.8911},{"ccn":"100329","name":"OVIEDO MEDICAL CENTER","city":"OVIEDO","st":"FL","beds":64,"lat":28.6563,"lon":-81.231},{"ccn":"100330","name":"HALIFAX HEALTH /UF HEALTH MEDICAL CENTER OF DELTON","city":"DELTONA","st":"FL","beds":42,"lat":28.8862,"lon":-81.2514},{"ccn":"100350","name":"UCF LAKE NONA HOSPITAL","city":"ORLANDO","st":"FL","beds":64,"lat":28.369,"lon":-81.2817},{"ccn":"100359","name":"SARASOTA MEMORIAL HOSPITAL - VENICE","city":"NORTH VENICE","st":"FL","beds":212,"lat":27.1374,"lon":-82.4201},{"ccn":"100360","name":"HCA FLORIDA UNIVERSITY HOSPITAL","city":"DAVIE","st":"FL","beds":165,"lat":26.0779,"lon":-80.2515},{"ccn":"100361","name":"ASCENSION ST VINCENT'S ST JOHNS COUNTY","city":"ST JOHNS","st":"FL","beds":56,"lat":30.0743,"lon":-81.5852},{"ccn":"100362","name":"BAYCARE HOSPITAL WESLEY CHAPEL","city":"WESLEY CHAPEL","st":"FL","beds":86,"lat":28.2215,"lon":-82.3533},{"ccn":"100363","name":"ADVENTHEALTH PALM COAST PARKWAY","city":"PALM COAST","st":"FL","beds":100,"lat":29.5516,"lon":-81.2436},{"ccn":"100364","name":"ADVENTHEALTH RIVERVIEW","city":"RIVERVIEW","st":"FL","beds":82,"lat":27.8617,"lon":-82.3266},{"ccn":"110003","name":"MEMORIAL SATILLA HEALTH","city":"WAYCROSS","st":"GA","beds":237,"lat":31.226,"lon":-82.3492},{"ccn":"110006","name":"ST MARY'S HOSPITAL","city":"ATHENS","st":"GA","beds":196,"lat":33.9459,"lon":-83.4046},{"ccn":"110007","name":"PHOEBE PUTNEY MEMORIAL HOSPITAL","city":"ALBANY","st":"GA","beds":691,"lat":31.5903,"lon":-84.1566},{"ccn":"110016","name":"WELLSTAR WEST GEORGIA MEDICAL CENTER","city":"LAGRANGE","st":"GA","beds":276,"lat":33.0306,"lon":-85.0576},{"ccn":"110018","name":"PIEDMONT NEWTON HOSPITAL","city":"COVINGTON","st":"GA","beds":90,"lat":33.6011,"lon":-83.849},{"ccn":"110023","name":"ADVENTHEALTH GORDON","city":"CALHOUN","st":"GA","beds":69,"lat":34.5118,"lon":-84.9206},{"ccn":"110028","name":"PIEDMONT AUGUSTA HOSPITAL","city":"AUGUSTA","st":"GA","beds":551,"lat":33.4372,"lon":-81.9562},{"ccn":"110030","name":"PIEDMONT CARTERSVILLE MEDICAL CENTER","city":"CARTERSVILLE","st":"GA","beds":112,"lat":34.1997,"lon":-84.7952},{"ccn":"110031","name":"WELLSTAR SPALDING MEDICAL CENTER","city":"GRIFFIN","st":"GA","beds":160,"lat":33.2396,"lon":-84.2658},{"ccn":"110035","name":"WELLSTAR KENNESTONE REGIONAL MEDICAL CENTER","city":"MARIETTA","st":"GA","beds":633,"lat":33.9687,"lon":-84.5503},{"ccn":"110036","name":"MEMORIAL HEALTH UNIVERSITY MEDICAL CENTER","city":"SAVANNAH","st":"GA","beds":619,"lat":32.0322,"lon":-81.0916},{"ccn":"110043","name":"ST JOSEPH'S HOSPITAL - SAVANNAH","city":"SAVANNAH","st":"GA","beds":294,"lat":31.9858,"lon":-81.153},{"ccn":"110075","name":"EAST GEORGIA REGIONAL MEDICAL CENTER","city":"STATESBORO","st":"GA","beds":150,"lat":32.4152,"lon":-81.7687},{"ccn":"110078","name":"EMORY UNIVERSITY HOSPITAL MIDTOWN","city":"ATLANTA","st":"GA","beds":481,"lat":33.7697,"lon":-84.3852},{"ccn":"110079","name":"GRADY MEMORIAL HOSPITAL","city":"ATLANTA","st":"GA","beds":953,"lat":33.7542,"lon":-84.3804},{"ccn":"110082","name":"SAINT JOSEPH'S HOSPITAL OF ATLANTA, INC","city":"ATLANTA","st":"GA","beds":410,"lat":33.9084,"lon":-84.3518},{"ccn":"110107","name":"ATRIUM HEALTH NAVICENT THE MEDICAL CENTER","city":"MACON","st":"GA","beds":637,"lat":32.8331,"lon":-83.6363},{"ccn":"110128","name":"MEMORIAL HEALTH MEADOWS HOSPITAL","city":"VIDALIA","st":"GA","beds":87,"lat":32.2386,"lon":-82.4178},{"ccn":"110165","name":"SOUTHERN REGIONAL MEDICAL CENTER","city":"RIVERDALE","st":"GA","beds":376,"lat":33.5769,"lon":-84.3929},{"ccn":"110177","name":"DOCTORS HOSPITAL","city":"AUGUSTA","st":"GA","beds":354,"lat":33.4827,"lon":-82.0928},{"ccn":"110184","name":"WELLSTAR DOUGLAS MEDICAL CENTER","city":"DOUGLASVILLE","st":"GA","beds":108,"lat":33.7395,"lon":-84.7329},{"ccn":"110192","name":"PIEDMONT EASTSIDE MEDICAL CENTER","city":"SNELLVILLE","st":"GA","beds":200,"lat":33.8776,"lon":-84.0197},{"ccn":"110215","name":"PIEDMONT FAYETTE HOSPITAL","city":"FAYETTEVILLE","st":"GA","beds":221,"lat":33.4509,"lon":-84.5078},{"ccn":"110229","name":"PIEDMONT NEWNAN HOSPITAL, INC","city":"NEWNAN","st":"GA","beds":143,"lat":33.3593,"lon":-84.7539},{"ccn":"110234","name":"SGMC BERRIEN CAMPUS","city":"NASHVILLE","st":"GA","beds":63,"lat":31.2035,"lon":-83.2381},{"ccn":"130002","name":"ST LUKE'S MAGIC VALLEY RMC","city":"TWIN FALLS","st":"ID","beds":226,"lat":42.5921,"lon":-114.4628},{"ccn":"130003","name":"ST JOSEPH REGIONAL MEDICAL CENTER","city":"LEWISTON","st":"ID","beds":145,"lat":46.4165,"lon":-117.0249},{"ccn":"130006","name":"ST LUKE'S REGIONAL MEDICAL CENTER","city":"BOISE","st":"ID","beds":544,"lat":43.6125,"lon":-116.1927},{"ccn":"130007","name":"SAINT ALPHONSUS REGIONAL MEDICAL CENTER","city":"BOISE","st":"ID","beds":365,"lat":43.6138,"lon":-116.2537},{"ccn":"130013","name":"SAINT ALPHONSUS MEDICAL CENTER - NAMPA","city":"NAMPA","st":"ID","beds":152,"lat":43.5976,"lon":-116.5195},{"ccn":"130014","name":"WEST VALLEY MEDICAL CENTER","city":"CALDWELL","st":"ID","beds":150,"lat":43.6536,"lon":-116.6955},{"ccn":"130018","name":"EASTERN IDAHO REGIONAL MEDICAL CENTER","city":"IDAHO FALLS","st":"ID","beds":330,"lat":43.4702,"lon":-111.9903},{"ccn":"130028","name":"PORTNEUF MEDICAL CENTER","city":"POCATELLO","st":"ID","beds":187,"lat":42.8713,"lon":-112.418},{"ccn":"130049","name":"KOOTENAI HEALTH","city":"COEUR D'ALENE","st":"ID","beds":321,"lat":47.6857,"lon":-116.6278},{"ccn":"130066","name":"NORTHWEST SPECIALTY HOSPITAL","city":"POST FALLS","st":"ID","beds":34,"lat":47.7144,"lon":-116.9237},{"ccn":"130071","name":"ST LUKE'S NAMPA MEDICAL CENTER","city":"NAMPA","st":"ID","beds":87,"lat":43.6167,"lon":-116.5898},{"ccn":"130074","name":"IDAHO FALLS COMMUNITY HOSPITAL, LLC","city":"IDAHO FALLS","st":"ID","beds":88,"lat":43.4726,"lon":-111.9877},{"ccn":"131325","name":"BINGHAM MEMORIAL HOSPITAL","city":"BLACKFOOT","st":"ID","beds":25,"lat":43.1934,"lon":-112.3474},{"ccn":"140007","name":"PRESENCE SAINT JOSEPH MEDICAL CENTER","city":"JOLIET","st":"IL","beds":443,"lat":41.528,"lon":-88.1347},{"ccn":"140010","name":"NORTHSHORE UNIVERSITY HEALTHSYSTEM EVANSTON HOSP","city":"EVANSTON","st":"IL","beds":466,"lat":42.066,"lon":-87.6832},{"ccn":"140012","name":"OSF SAINT KATHARINE MEDICAL CENTER","city":"DIXON","st":"IL","beds":80,"lat":41.8443,"lon":-89.4799},{"ccn":"140013","name":"CARLE HEALTH PROCTOR HOSPITAL","city":"PEORIA","st":"IL","beds":305,"lat":40.7532,"lon":-89.5934},{"ccn":"140015","name":"BLESSING HOSPITAL","city":"QUINCY","st":"IL","beds":312,"lat":39.9357,"lon":-91.3999},{"ccn":"140018","name":"MT SINAI HOSPITAL MEDICAL CENTER","city":"CHICAGO","st":"IL","beds":431,"lat":41.8469,"lon":-87.6707},{"ccn":"140029","name":"RUSH COPLEY MEDICAL CENTER","city":"AURORA","st":"IL","beds":210,"lat":41.7277,"lon":-88.2686},{"ccn":"140030","name":"ADVOCATE SHERMAN HOSPITAL","city":"ELGIN","st":"IL","beds":255,"lat":42.055,"lon":-88.3387},{"ccn":"140034","name":"SSM HEALTH ST MARY'S HOSPITAL -CENTRALIA","city":"CENTRALIA","st":"IL","beds":125,"lat":38.529,"lon":-89.1161},{"ccn":"140043","name":"CGH MEDICAL CENTER","city":"STERLING","st":"IL","beds":98,"lat":41.8016,"lon":-89.6971},{"ccn":"140046","name":"GOOD SAMARITAN REGIONAL HLTH CENTER","city":"MOUNT VERNON","st":"IL","beds":175,"lat":38.2975,"lon":-88.9371},{"ccn":"140048","name":"ADVOCATE TRINITY HOSPITAL","city":"CHICAGO","st":"IL","beds":263,"lat":41.7263,"lon":-87.5678},{"ccn":"140053","name":"ST JOHNS HOSPITAL","city":"SPRINGFIELD","st":"IL","beds":731,"lat":39.8072,"lon":-89.6448},{"ccn":"140054","name":"MACNEAL  HOSPITAL","city":"BERWYN","st":"IL","beds":427,"lat":41.8327,"lon":-87.7927},{"ccn":"140062","name":"PALOS COMMUNITY HOSPITAL","city":"PALOS HEIGHTS","st":"IL","beds":436,"lat":41.6624,"lon":-87.79},{"ccn":"140065","name":"UCHICAGO MEDICINE ADVENTHEALTH LA GRANGE","city":"LA GRANGE","st":"IL","beds":223,"lat":41.7844,"lon":-87.869},{"ccn":"140067","name":"SAINT FRANCIS MEDICAL CENTER","city":"PEORIA","st":"IL","beds":730,"lat":40.7021,"lon":-89.5912},{"ccn":"140080","name":"PRESENCE SAINT FRANCIS HOSPITAL","city":"EVANSTON","st":"IL","beds":427,"lat":42.0233,"lon":-87.685},{"ccn":"140082","name":"LOUIS A WEISS MEMORIAL HOSPITAL","city":"CHICAGO","st":"IL","beds":236,"lat":41.9665,"lon":-87.6489},{"ccn":"140084","name":"VISTA MEDICAL CENTER EAST","city":"WAUKEGAN","st":"IL","beds":388,"lat":42.3784,"lon":-87.8311},{"ccn":"140088","name":"THE UNIVERSITY OF CHICAGO MEDICAL CENTER","city":"CHICAGO","st":"IL","beds":782,"lat":41.7888,"lon":-87.6049},{"ccn":"140091","name":"THE CARLE FOUNDATION HOSPITAL","city":"URBANA","st":"IL","beds":316,"lat":40.1173,"lon":-88.2146},{"ccn":"140093","name":"OSF SACRED HEART MEDICAL CENTER","city":"DANVILLE","st":"IL","beds":210,"lat":40.1353,"lon":-87.645},{"ccn":"140101","name":"MORRIS HOSPITAL & HEALTHCARE CENTERS","city":"MORRIS","st":"IL","beds":89,"lat":41.369,"lon":-88.4265},{"ccn":"140113","name":"OSF HEART OF MARY MEDICAL CENTER","city":"URBANA","st":"IL","beds":268,"lat":40.1174,"lon":-88.2261},{"ccn":"140114","name":"SWEDISH HOSPITAL","city":"CHICAGO","st":"IL","beds":284,"lat":41.9731,"lon":-87.7004},{"ccn":"140115","name":"THOREK MEMORIAL HOSPITAL","city":"CHICAGO","st":"IL","beds":218,"lat":41.9546,"lon":-87.6523},{"ccn":"140117","name":"PRESENCE RESURRECTION MEDICAL CENTER","city":"CHICAGO","st":"IL","beds":443,"lat":41.9886,"lon":-87.8129},{"ccn":"140119","name":"RUSH UNIVERSITY MEDICAL CENTER","city":"CHICAGO","st":"IL","beds":727,"lat":41.8803,"lon":-87.6877},{"ccn":"140122","name":"UCHICAGO MEDICINE ADVENTHEALTH HINSDALE","city":"HINSDALE","st":"IL","beds":261,"lat":41.8054,"lon":-87.9202},{"ccn":"140125","name":"GATEWAY REGIONAL MEDICAL CENTER","city":"GRANITE CITY","st":"IL","beds":406,"lat":38.7009,"lon":-90.1448},{"ccn":"140133","name":"HOLY CROSS HOSPITAL","city":"CHICAGO","st":"IL","beds":311,"lat":41.77,"lon":-87.6908},{"ccn":"140148","name":"MEMORIAL MEDICAL CENTER","city":"SPRINGFIELD","st":"IL","beds":562,"lat":39.8086,"lon":-89.6547},{"ccn":"140150","name":"UNIVERSITY OF ILLINOIS HOSPITAL AND CLINICS","city":"CHICAGO","st":"IL","beds":507,"lat":41.8693,"lon":-87.6707},{"ccn":"140155","name":"PRESENCE ST MARYS HOSPITAL","city":"KANKAKEE","st":"IL","beds":182,"lat":41.1212,"lon":-87.8731},{"ccn":"140158","name":"INSIGHT HOSPITAL AND MEDICAL CENTER CHICAGO","city":"CHICAGO","st":"IL","beds":494,"lat":41.8454,"lon":-87.6233},{"ccn":"140160","name":"FHN MEMORIAL HOSPITAL","city":"FREEPORT","st":"IL","beds":203,"lat":42.2958,"lon":-89.6379},{"ccn":"140162","name":"ST JOSEPH MEDICAL CENTER","city":"BLOOMINGTON","st":"IL","beds":180,"lat":40.4801,"lon":-88.957},{"ccn":"140164","name":"MEMORIAL HOSPITAL OF CARBONDALE","city":"CARBONDALE","st":"IL","beds":140,"lat":37.7279,"lon":-89.2205},{"ccn":"140166","name":"ST MARYS HOSPITAL","city":"DECATUR","st":"IL","beds":355,"lat":39.8264,"lon":-88.9333},{"ccn":"140172","name":"FRANCISCAN HEALTH OLYMPIA & CHICAGO HEIGHTS","city":"OLYMPIA FIELDS","st":"IL","beds":300,"lat":41.5239,"lon":-87.7132},{"ccn":"140174","name":"PRESENCE MERCY MEDICAL CENTER","city":"AURORA","st":"IL","beds":315,"lat":41.7856,"lon":-88.3288},{"ccn":"140179","name":"OSF LITTLE COMPANY OF MARY MEDICAL CENTER","city":"EVERGREEN PARK","st":"IL","beds":298,"lat":41.7209,"lon":-87.692},{"ccn":"140180","name":"PRESENCE SAINTS MARY AND ELIZABETH MEDICAL CENTER","city":"CHICAGO","st":"IL","beds":493,"lat":41.903,"lon":-87.683},{"ccn":"140182","name":"ADVOCATE ILLINOIS MASONIC MEDICAL CENTER","city":"CHICAGO","st":"IL","beds":997,"lat":41.9364,"lon":-87.6522},{"ccn":"140184","name":"HEARTLAND REGIONAL MEDICAL CENTER","city":"MARION","st":"IL","beds":92,"lat":37.7448,"lon":-88.9994},{"ccn":"140185","name":"MEMORIAL HOSPITAL","city":"BELLEVILLE","st":"IL","beds":341,"lat":38.5488,"lon":-90.0206},{"ccn":"140186","name":"RIVERSIDE MEDICAL CENTER","city":"KANKAKEE","st":"IL","beds":341,"lat":41.1239,"lon":-87.8823},{"ccn":"140187","name":"HSHS ST ELIZABETH'S HOSPITAL","city":"O FALLON","st":"IL","beds":260,"lat":38.5825,"lon":-89.9333},{"ccn":"140191","name":"INGALLS MEMORIAL HOSPITAL","city":"HARVEY","st":"IL","beds":582,"lat":41.6063,"lon":-87.6594},{"ccn":"140200","name":"ELMHURST MEMORIAL HOSPITAL","city":"ELMHURST","st":"IL","beds":247,"lat":41.8617,"lon":-87.935},{"ccn":"140202","name":"ADVOCATE CONDELL MEDICAL CENTER","city":"LIBERTYVILLE","st":"IL","beds":284,"lat":42.2745,"lon":-87.9517},{"ccn":"140208","name":"ADVOCATE CHRIST HOSPITAL & MEDICAL CENTER","city":"OAK LAWN","st":"IL","beds":695,"lat":41.7203,"lon":-87.7316},{"ccn":"140209","name":"CARLE HEALTH METHODIST HOSPITAL","city":"PEORIA","st":"IL","beds":485,"lat":40.6999,"lon":-89.5953},{"ccn":"140211","name":"NORTHWESTERN MEDICINE DELNOR COMMUNITY HOSPITAL","city":"GENEVA","st":"IL","beds":118,"lat":41.8867,"lon":-88.3405},{"ccn":"140213","name":"SILVER CROSS HOSPITAL  AND MEDICAL CENTERS","city":"NEW LENOX","st":"IL","beds":304,"lat":41.5431,"lon":-87.986},{"ccn":"140217","name":"PRESENCE SAINT JOSEPH HOSPITAL - ELGIN","city":"ELGIN","st":"IL","beds":277,"lat":42.0355,"lon":-88.3284},{"ccn":"140223","name":"ADVOCATE LUTHERAN GENERAL HOSPITAL","city":"PARK RIDGE","st":"IL","beds":638,"lat":42.0118,"lon":-87.8434},{"ccn":"140224","name":"PRESENCE SAINT JOSEPH HOSPITAL - CHICAGO","city":"CHICAGO","st":"IL","beds":402,"lat":41.9353,"lon":-87.6329},{"ccn":"140228","name":"UW HEALTH","city":"ROCKFORD","st":"IL","beds":397,"lat":42.2669,"lon":-89.0736},{"ccn":"140233","name":"SAINT ANTHONY MEDICAL CENTER","city":"ROCKFORD","st":"IL","beds":254,"lat":42.2661,"lon":-89.0059},{"ccn":"140239","name":"JAVON BEA HOSPITAL","city":"ROCKFORD","st":"IL","beds":431,"lat":42.3191,"lon":-88.9624},{"ccn":"140251","name":"COMMUNITY FIRST MEDICAL CENTER","city":"CHICAGO","st":"IL","beds":299,"lat":41.9458,"lon":-87.7682},{"ccn":"140252","name":"NORTHWEST COMMUNITY HOSPITAL 1","city":"ARLINGTON HEIGHTS","st":"IL","beds":563,"lat":42.0666,"lon":-87.9929},{"ccn":"140258","name":"ALEXIAN BROTHERS MEDICAL CENTER 1","city":"ELK GROVE VILLAGE","st":"IL","beds":483,"lat":42.0035,"lon":-88.0173},{"ccn":"140275","name":"GENESIS HEALTH SYSTEM","city":"SILVIS","st":"IL","beds":149,"lat":41.4956,"lon":-90.413},{"ccn":"140276","name":"LOYOLA UNIVERSITY MEDICAL CENTER","city":"MAYWOOD","st":"IL","beds":507,"lat":41.8652,"lon":-87.8335},{"ccn":"140280","name":"TRINITY ROCK ISLAND","city":"ROCK ISLAND","st":"IL","beds":314,"lat":41.4834,"lon":-90.5727},{"ccn":"140281","name":"NORTHWESTERN MEMORIAL HOSPITAL","city":"CHICAGO","st":"IL","beds":894,"lat":41.8949,"lon":-87.6215},{"ccn":"140286","name":"NORTHWESTERN MEDICINE KISHWAUKEE HOSPITAL","city":"DEKALB","st":"IL","beds":98,"lat":41.9013,"lon":-88.7615},{"ccn":"140288","name":"ADVOCATE GOOD SAMARITAN HOSPITAL","city":"DOWNERS GROVE","st":"IL","beds":366,"lat":41.8186,"lon":-88.0102},{"ccn":"140289","name":"ANDERSON HOSPITAL","city":"MARYVILLE","st":"IL","beds":151,"lat":38.7381,"lon":-89.9471},{"ccn":"140292","name":"UCHICAGO MEDICINE ADVENTHEALTH GLENOAKS","city":"GLENDALE HEIGHTS","st":"IL","beds":186,"lat":41.9149,"lon":-88.0603},{"ccn":"140300","name":"PROVIDENT HOSPITAL OF CHICAGO","city":"CHICAGO","st":"IL","beds":222,"lat":41.8022,"lon":-87.6126},{"ccn":"140304","name":"UCHICAGO MEDICINE ADVENTHEALTH BOLINGBROOK","city":"BOLINGBROOK","st":"IL","beds":138,"lat":41.679,"lon":-88.0848},{"ccn":"141343","name":"CRAWFORD MEMORIAL HOSPITAL","city":"ROBINSON","st":"IL","beds":25,"lat":39.0137,"lon":-87.7489},{"ccn":"150002","name":"METHODIST HOSPITALS INC","city":"GARY","st":"IN","beds":536,"lat":41.5995,"lon":-87.3571},{"ccn":"150005","name":"HENDRICKS REGIONAL HEALTH","city":"DANVILLE","st":"IN","beds":160,"lat":39.7597,"lon":-86.5112},{"ccn":"150006","name":"NORTHWEST HEALTH-LA PORTE","city":"LA PORTE","st":"IN","beds":227,"lat":41.6093,"lon":-86.7272},{"ccn":"150007","name":"COMMUNITY HOWARD REGIONAL HEALTH INC","city":"KOKOMO","st":"IN","beds":162,"lat":40.4466,"lon":-86.127},{"ccn":"150008","name":"ST CATHERINE HOSPITAL INC","city":"EAST CHICAGO","st":"IN","beds":189,"lat":41.647,"lon":-87.454},{"ccn":"150009","name":"NORTON CLARK HOSPITAL","city":"JEFFERSONVILLE","st":"IN","beds":241,"lat":38.3324,"lon":-85.6961},{"ccn":"150010","name":"ASCENSION ST VINCENT KOKOMO","city":"KOKOMO","st":"IN","beds":167,"lat":40.4872,"lon":-86.1555},{"ccn":"150011","name":"MARION GENERAL HOSPITAL","city":"MARION","st":"IN","beds":99,"lat":40.5641,"lon":-85.6654},{"ccn":"150012","name":"SAINT JOSEPH REGIONAL MEDICAL CENTER","city":"MISHAWAKA","st":"IN","beds":301,"lat":41.6935,"lon":-86.1466},{"ccn":"150015","name":"FRANCISCAN HEALTH MICHIGAN CITY","city":"MICHIGAN CITY","st":"IN","beds":310,"lat":41.6893,"lon":-86.8693},{"ccn":"150017","name":"LUTHERAN HOSPITAL OF INDIANA","city":"FORT WAYNE","st":"IN","beds":396,"lat":41.0367,"lon":-85.247},{"ccn":"150018","name":"ELKHART GENERAL HOSPITAL","city":"ELKHART","st":"IN","beds":297,"lat":41.7227,"lon":-85.977},{"ccn":"150021","name":"PARKVIEW REGIONAL MEDICAL CENTER","city":"FORT WAYNE","st":"IN","beds":600,"lat":41.1863,"lon":-85.0992},{"ccn":"150024","name":"ESKENAZI HEALTH","city":"INDIANAPOLIS","st":"IN","beds":343,"lat":39.7781,"lon":-86.183},{"ccn":"150026","name":"GOSHEN HOSPITAL","city":"GOSHEN","st":"IN","beds":123,"lat":41.5643,"lon":-85.8298},{"ccn":"150030","name":"HENRY COUNTY MEMORIAL HOSPITAL","city":"NEW CASTLE","st":"IN","beds":90,"lat":39.9428,"lon":-85.3649},{"ccn":"150034","name":"ST MARY MEDICAL CENTER INC","city":"HOBART","st":"IN","beds":176,"lat":41.5142,"lon":-87.259},{"ccn":"150035","name":"NORTHWEST  HEALTH- PORTER","city":"VALPARAISO","st":"IN","beds":301,"lat":41.55,"lon":-87.0543},{"ccn":"150037","name":"HANCOCK REGIONAL HOSPITAL","city":"GREENFIELD","st":"IN","beds":69,"lat":39.7731,"lon":-85.7664},{"ccn":"150042","name":"GOOD SAMARITAN HOSPITAL","city":"VINCENNES","st":"IN","beds":165,"lat":38.6739,"lon":-87.5321},{"ccn":"150044","name":"BAPTIST HEALTH FLOYD","city":"NEW ALBANY","st":"IN","beds":225,"lat":38.3004,"lon":-85.8348},{"ccn":"150046","name":"TERRE HAUTE REGIONAL HOSPITAL","city":"TERRE HAUTE","st":"IN","beds":278,"lat":39.42,"lon":-87.4069},{"ccn":"150047","name":"LUTHERAN DOWNTOWN HOSPITAL","city":"FORT WAYNE","st":"IN","beds":191,"lat":41.0786,"lon":-85.1502},{"ccn":"150048","name":"REID HEALTH","city":"RICHMOND","st":"IN","beds":223,"lat":39.8629,"lon":-84.8858},{"ccn":"150051","name":"IU HEALTH BLOOMINGTON HOSPITAL","city":"BLOOMINGTON","st":"IN","beds":297,"lat":39.2298,"lon":-86.4673},{"ccn":"150056","name":"INDIANA UNIVERSITY HEALTH","city":"INDIANAPOLIS","st":"IN","beds":1733,"lat":39.7884,"lon":-86.1656},{"ccn":"150058","name":"MEMORIAL HOSPITAL OF SOUTH BEND","city":"SOUTH BEND","st":"IN","beds":463,"lat":41.684,"lon":-86.2506},{"ccn":"150059","name":"RIVERVIEW HEALTH","city":"NOBLESVILLE","st":"IN","beds":162,"lat":40.047,"lon":-86.0239},{"ccn":"150069","name":"NORTON-KING'S DAUGHTERS' HEALTH","city":"MADISON","st":"IN","beds":86,"lat":38.7892,"lon":-85.3651},{"ccn":"150074","name":"COMMUNITY HOSPITAL EAST","city":"INDIANAPOLIS","st":"IN","beds":263,"lat":39.7877,"lon":-86.0739},{"ccn":"150076","name":"SAINT JOSEPH REGIONAL MEDICAL CENTER - PLYMOUTH","city":"PLYMOUTH","st":"IN","beds":58,"lat":41.3339,"lon":-86.3334},{"ccn":"150082","name":"DEACONESS HOSPITAL INC","city":"EVANSVILLE","st":"IN","beds":558,"lat":38.0255,"lon":-87.5758},{"ccn":"150084","name":"ASCENSION ST VINCENT HOSPITAL","city":"INDIANAPOLIS","st":"IN","beds":779,"lat":39.912,"lon":-86.1964},{"ccn":"150086","name":"ST ELIZABETH DEARBORN HOSPITAL","city":"LAWRENCEBURG","st":"IN","beds":78,"lat":39.1106,"lon":-84.8846},{"ccn":"150088","name":"ASCENSION ST VINCENT ANDERSON","city":"ANDERSON","st":"IN","beds":195,"lat":40.0962,"lon":-85.6805},{"ccn":"150089","name":"INDIANA UNIVERSITY HEALTH BALL MEMORIAL HOSPITAL","city":"MUNCIE","st":"IN","beds":379,"lat":40.1975,"lon":-85.4141},{"ccn":"150090","name":"FRANCISCAN HEALTH DYER","city":"DYER","st":"IN","beds":198,"lat":41.4942,"lon":-87.5235},{"ccn":"150100","name":"ASCENSION ST VINCENT EVANSVILLE","city":"EVANSVILLE","st":"IN","beds":414,"lat":37.9625,"lon":-87.5053},{"ccn":"150104","name":"WITHAM HEALTH SERVICES","city":"LEBANON","st":"IN","beds":52,"lat":40.043,"lon":-86.4567},{"ccn":"150109","name":"FRANCISCAN HEALTH LAFAYETTE","city":"LAFAYETTE","st":"IN","beds":186,"lat":40.3931,"lon":-86.8383},{"ccn":"150112","name":"COLUMBUS REGIONAL HOSPITAL","city":"COLUMBUS","st":"IN","beds":160,"lat":39.2159,"lon":-85.8968},{"ccn":"150113","name":"COMMUNITY HOSPITAL OF ANDERSON AND MADISON COUNTY","city":"ANDERSON","st":"IN","beds":137,"lat":40.1291,"lon":-85.6917},{"ccn":"150115","name":"MEMORIAL HOSPITAL AND HEALTH CARE CENTER","city":"JASPER","st":"IN","beds":123,"lat":38.3938,"lon":-86.9422},{"ccn":"150125","name":"COMMUNITY HOSPITAL","city":"MUNSTER","st":"IN","beds":437,"lat":41.5501,"lon":-87.5077},{"ccn":"150126","name":"FRANCISCAN HEALTH CROWN POINT","city":"CROWN POINT","st":"IN","beds":208,"lat":41.4032,"lon":-87.3284},{"ccn":"150128","name":"COMMUNITY HOSPITAL SOUTH","city":"INDIANAPOLIS","st":"IN","beds":127,"lat":39.6355,"lon":-86.1347},{"ccn":"150153","name":"ASCENSION ST VINCENT HEART CENTER","city":"CARMEL","st":"IN","beds":107,"lat":39.9368,"lon":-86.1622},{"ccn":"150158","name":"IU HEALTH WEST HOSPITAL","city":"AVON","st":"IN","beds":127,"lat":39.7829,"lon":-86.3436},{"ccn":"150161","name":"INDIANA UNIVERSITY HEALTH NORTH HOSPITAL","city":"CARMEL","st":"IN","beds":149,"lat":39.9577,"lon":-86.158},{"ccn":"150162","name":"FRANCISCAN HEALTH INDIANAPOLIS","city":"INDIANAPOLIS","st":"IN","beds":385,"lat":39.6483,"lon":-86.0826},{"ccn":"150165","name":"FRANCISCAN HEALTH MUNSTER","city":"MUNSTER","st":"IN","beds":63,"lat":41.5373,"lon":-87.5123},{"ccn":"150166","name":"PINNACLE HOSPITAL","city":"CROWN POINT","st":"IN","beds":18,"lat":41.4032,"lon":-87.3284},{"ccn":"150173","name":"INDIANA UNIVERSITY HEALTH ARNETT HOSPITAL","city":"LAFAYETTE","st":"IN","beds":191,"lat":40.4201,"lon":-86.766},{"ccn":"160016","name":"TRINITY REGIONAL MEDICAL CENTER","city":"FORT DODGE","st":"IA","beds":174,"lat":42.4912,"lon":-94.1908},{"ccn":"160028","name":"CHI HEALTH MERCY COUNCIL BLUFFS","city":"COUNCIL BLUFFS","st":"IA","beds":194,"lat":41.2675,"lon":-95.8406},{"ccn":"160029","name":"UNIVERSITY OF IOWA HEALTH CARE MEDICAL CENTER DOWN","city":"IOWA CITY","st":"IA","beds":234,"lat":41.6636,"lon":-91.5286},{"ccn":"160030","name":"MARY GREELEY MEDICAL CENTER","city":"AMES","st":"IA","beds":220,"lat":42.0322,"lon":-93.6107},{"ccn":"160033","name":"GENESIS MEDICAL CENTER-DAVENPORT","city":"DAVENPORT","st":"IA","beds":502,"lat":41.5428,"lon":-90.5575},{"ccn":"160045","name":"ST LUKES HOSPITAL","city":"CEDAR RAPIDS","st":"IA","beds":532,"lat":41.9849,"lon":-91.6605},{"ccn":"160047","name":"METHODIST JENNIE EDMUNDSON","city":"COUNCIL BLUFFS","st":"IA","beds":236,"lat":41.2685,"lon":-95.8359},{"ccn":"160057","name":"SOUTHEAST IOWA REGIONAL MEDICAL CENTER","city":"WEST BURLINGTON","st":"IA","beds":173,"lat":40.8104,"lon":-91.1703},{"ccn":"160058","name":"UNIVERSITY OF IOWA HEALTH CARE MEDICAL CENTER","city":"IOWA CITY","st":"IA","beds":1103,"lat":41.6595,"lon":-91.5498},{"ccn":"160064","name":"MERCYONE NORTH IOWA MEDICAL CENTER","city":"MASON CITY","st":"IA","beds":350,"lat":43.1485,"lon":-93.2152},{"ccn":"160067","name":"MERCYONE WATERLOO MEDICAL CENTER","city":"WATERLOO","st":"IA","beds":423,"lat":42.4643,"lon":-92.345},{"ccn":"160079","name":"MERCY MEDICAL CENTER - CEDAR RAPIDS","city":"CEDAR RAPIDS","st":"IA","beds":347,"lat":41.9791,"lon":-91.6551},{"ccn":"160080","name":"MERCYONE CLINTON MEDICAL CENTER","city":"CLINTON","st":"IA","beds":147,"lat":41.8607,"lon":-90.1881},{"ccn":"160082","name":"UNITYPOINT HEALTH - DES MOINES IOWA METHODIST MEDI","city":"DES MOINES","st":"IA","beds":674,"lat":41.5907,"lon":-93.6324},{"ccn":"160083","name":"MERCYONE DES MOINES MEDICAL CENTER","city":"DES MOINES","st":"IA","beds":649,"lat":41.5977,"lon":-93.6256},{"ccn":"160089","name":"OTTUMWA REGIONAL HEALTH CENTER","city":"OTTUMWA","st":"IA","beds":235,"lat":41.0275,"lon":-92.3904},{"ccn":"160104","name":"TRINITY BETTENDORF","city":"BETTENDORF","st":"IA","beds":150,"lat":41.5654,"lon":-90.5174},{"ccn":"160110","name":"ALLEN HOSPITAL","city":"WATERLOO","st":"IA","beds":234,"lat":42.5261,"lon":-92.3377},{"ccn":"160117","name":"FINLEY HOSPITAL","city":"DUBUQUE","st":"IA","beds":158,"lat":42.5455,"lon":-90.6958},{"ccn":"160146","name":"ST LUKES REGIONAL MEDICAL CENTER","city":"SIOUX CITY","st":"IA","beds":201,"lat":42.518,"lon":-96.4052},{"ccn":"160153","name":"MERCYONE SIOUXLAND MEDICAL CENTER","city":"SIOUX CITY","st":"IA","beds":267,"lat":42.4953,"lon":-96.4001},{"ccn":"170006","name":"MERCY HOSPITAL PITTSBURG, INC","city":"PITTSBURG","st":"KS","beds":102,"lat":37.3939,"lon":-94.7105},{"ccn":"170012","name":"SALINA REGIONAL HEALTH CENTER","city":"SALINA","st":"KS","beds":396,"lat":38.8343,"lon":-97.6093},{"ccn":"170013","name":"HAYS MEDICAL CENTER","city":"HAYS","st":"KS","beds":206,"lat":38.8785,"lon":-99.2992},{"ccn":"170020","name":"HUTCHINSON REGIONAL MEDICAL CENTER INC","city":"HUTCHINSON","st":"KS","beds":199,"lat":38.0794,"lon":-97.8945},{"ccn":"170023","name":"CENTURA ST. CATHERINE HOSPITAL-GARDEN CITY","city":"GARDEN CITY","st":"KS","beds":100,"lat":37.969,"lon":-100.8691},{"ccn":"170040","name":"UNIVERSITY OF KANSAS HOSPITAL","city":"KANSAS CITY","st":"KS","beds":1045,"lat":39.0573,"lon":-94.6084},{"ccn":"170049","name":"OLATHE MEDICAL CENTER","city":"OLATHE","st":"KS","beds":300,"lat":38.8546,"lon":-94.8224},{"ccn":"170086","name":"STORMONT VAIL HOSPITAL","city":"TOPEKA","st":"KS","beds":506,"lat":39.0512,"lon":-95.6957},{"ccn":"170122","name":"ASCENSION VIA CHRISTI HOSPITALS WICHITA, INC.","city":"WICHITA","st":"KS","beds":1412,"lat":37.7002,"lon":-97.3317},{"ccn":"170123","name":"WESLEY MEDICAL CENTER","city":"WICHITA","st":"KS","beds":859,"lat":37.6946,"lon":-97.299},{"ccn":"170137","name":"LMH","city":"LAWRENCE","st":"KS","beds":157,"lat":38.9794,"lon":-95.2477},{"ccn":"170175","name":"ST CATHERINE HOSPITAL - DODGE CITY","city":"DODGE CITY","st":"KS","beds":99,"lat":37.7855,"lon":-100.015},{"ccn":"170176","name":"OVERLAND PARK REG MED CTR","city":"OVERLAND PARK","st":"KS","beds":351,"lat":38.9387,"lon":-94.7236},{"ccn":"170182","name":"MENORAH MEDICAL CENTER","city":"OVERLAND PARK","st":"KS","beds":190,"lat":38.9129,"lon":-94.6548},{"ccn":"170186","name":"KANSAS HEART HOSPITAL","city":"WICHITA","st":"KS","beds":54,"lat":37.7494,"lon":-97.2264},{"ccn":"170197","name":"KANSAS MEDICAL CENTER LLC","city":"ANDOVER","st":"KS","beds":58,"lat":37.7233,"lon":-97.1466},{"ccn":"170204","name":"ROCK REGIONAL HOSPITAL, LLC","city":"DERBY","st":"KS","beds":31,"lat":37.5826,"lon":-97.2445},{"ccn":"171384","name":"NEWMAN REGIONAL HEALTH","city":"EMPORIA","st":"KS","beds":53,"lat":38.4123,"lon":-96.1952},{"ccn":"180001","name":"ST ELIZABETH FT THOMAS","city":"FORT THOMAS","st":"KY","beds":178,"lat":39.0786,"lon":-84.4652},{"ccn":"180005","name":"HIGHLANDS ARH REGIONAL MEDICAL CENTER","city":"PRESTONSBURG","st":"KY","beds":166,"lat":37.7297,"lon":-82.7684},{"ccn":"180009","name":"KING'S DAUGHTERS' MEDICAL CENTER","city":"ASHLAND","st":"KY","beds":455,"lat":38.4704,"lon":-82.6359},{"ccn":"180011","name":"CHI SAINT JOSEPH LONDON","city":"LONDON","st":"KY","beds":120,"lat":37.1368,"lon":-84.1273},{"ccn":"180013","name":"THE MEDICAL CENTER AT BOWLING GREEN","city":"BOWLING GREEN","st":"KY","beds":382,"lat":36.9964,"lon":-86.43},{"ccn":"180018","name":"ST CLAIRE REGIONAL MEDICAL CENTER","city":"MOREHEAD","st":"KY","beds":149,"lat":38.1805,"lon":-83.443},{"ccn":"180027","name":"MURRAY-CALLOWAY COUNTY HOSPITAL","city":"MURRAY","st":"KY","beds":140,"lat":36.6086,"lon":-88.3087},{"ccn":"180029","name":"HAZARD ARH REGIONAL MEDICAL CENTER","city":"HAZARD","st":"KY","beds":308,"lat":37.2778,"lon":-83.2275},{"ccn":"180035","name":"ST ELIZABETH MEDICAL CENTER NORTH","city":"EDGEWOOD","st":"KY","beds":621,"lat":39.008,"lon":-84.5648},{"ccn":"180038","name":"OWENSBORO HEALTH REGIONAL HOSPITAL","city":"OWENSBORO","st":"KY","beds":469,"lat":37.7731,"lon":-87.066},{"ccn":"180040","name":"UOFL HEALTH - JEWISH HOSPITAL","city":"LOUISVILLE","st":"KY","beds":1261,"lat":38.249,"lon":-85.749},{"ccn":"180045","name":"ST ELIZABETH FLORENCE","city":"FLORENCE","st":"KY","beds":231,"lat":39.0144,"lon":-84.6381},{"ccn":"180048","name":"EPHRAIM MCDOWELL REGIONAL MEDICAL CENTER","city":"DANVILLE","st":"KY","beds":197,"lat":37.6441,"lon":-84.7727},{"ccn":"180049","name":"BAPTIST HEALTH RICHMOND","city":"RICHMOND","st":"KY","beds":105,"lat":37.7312,"lon":-84.2858},{"ccn":"180051","name":"JENNIE STUART MEDICAL CENTER","city":"HOPKINSVILLE","st":"KY","beds":194,"lat":36.8604,"lon":-87.4954},{"ccn":"180067","name":"UNIVERSITY OF KENTUCKY HOSPITAL","city":"LEXINGTON","st":"KY","beds":791,"lat":38.0328,"lon":-84.5067},{"ccn":"180080","name":"BAPTIST HEALTH CORBIN","city":"CORBIN","st":"KY","beds":240,"lat":36.922,"lon":-84.114},{"ccn":"180088","name":"NORTON HOSPITAL / NORTON HEALTHCARE PAVILION / NOR","city":"LOUISVILLE","st":"KY","beds":1730,"lat":38.2482,"lon":-85.7518},{"ccn":"180093","name":"BAPTIST HEALTH DEACONESS MADISONVILLE","city":"MADISONVILLE","st":"KY","beds":390,"lat":37.3395,"lon":-87.492},{"ccn":"180103","name":"BAPTIST HEALTH LEXINGTON","city":"LEXINGTON","st":"KY","beds":371,"lat":38.0191,"lon":-84.5138},{"ccn":"180104","name":"BAPTIST HEALTH PADUCAH","city":"PADUCAH","st":"KY","beds":349,"lat":37.0048,"lon":-88.5779},{"ccn":"180124","name":"TRISTAR GREENVIEW REGIONAL HOSPITAL","city":"BOWLING GREEN","st":"KY","beds":211,"lat":36.9658,"lon":-86.4359},{"ccn":"180130","name":"BAPTIST HEALTH LOUISVILLE","city":"LOUISVILLE","st":"KY","beds":519,"lat":38.2397,"lon":-85.6378},{"ccn":"180141","name":"UNIVERSITY OF LOUISVILLE HOSPITAL","city":"LOUISVILLE","st":"KY","beds":404,"lat":38.2491,"lon":-85.745},{"ccn":"180143","name":"CHI SAINT JOSEPH EAST","city":"LEXINGTON","st":"KY","beds":217,"lat":38.0002,"lon":-84.4402},{"ccn":"190002","name":"OCHSNER LAFAYETTE GENERAL MEDICAL CENTER","city":"LAFAYETTE","st":"LA","beds":501,"lat":30.2027,"lon":-92.0184},{"ccn":"190004","name":"THIBODAUX REGIONAL MEDICAL CENTER","city":"THIBODAUX","st":"LA","beds":194,"lat":29.7812,"lon":-90.8075},{"ccn":"190005","name":"UNIVERSITY MEDICAL CENTER NEW ORLEANS","city":"NEW ORLEANS","st":"LA","beds":446,"lat":29.9608,"lon":-90.0807},{"ccn":"190006","name":"OCHSNER UNIVERSITY HOSPITAL AND CLINICS","city":"LAFAYETTE","st":"LA","beds":116,"lat":30.2191,"lon":-92.041},{"ccn":"190008","name":"TERREBONNE GENERAL HEALTH SYSTEM","city":"HOUMA","st":"LA","beds":321,"lat":29.5787,"lon":-90.8054},{"ccn":"190011","name":"OCHSNER LSU HEALTH MONROE","city":"MONROE","st":"LA","beds":247,"lat":32.4519,"lon":-92.1057},{"ccn":"190013","name":"WEST CALCASIEU CAMERON HOSPITAL","city":"SULPHUR","st":"LA","beds":110,"lat":30.2311,"lon":-93.3687},{"ccn":"190015","name":"NORTH OAKS MEDICAL CENTER, L L C","city":"HAMMOND","st":"LA","beds":330,"lat":30.4856,"lon":-90.4877},{"ccn":"190017","name":"OPELOUSAS GENERAL HEALTH SYSTEM","city":"OPELOUSAS","st":"LA","beds":171,"lat":30.5435,"lon":-92.0755},{"ccn":"190019","name":"CHRISTUS ST FRANCES CABRINI HOSPITAL","city":"ALEXANDRIA","st":"LA","beds":293,"lat":31.2821,"lon":-92.4612},{"ccn":"190020","name":"LANE REGIONAL MEDICAL CENTER","city":"ZACHARY","st":"LA","beds":140,"lat":30.652,"lon":-91.1544},{"ccn":"190026","name":"RAPIDES REGIONAL MEDICAL CENTER","city":"ALEXANDRIA","st":"LA","beds":346,"lat":31.3149,"lon":-92.4501},{"ccn":"190027","name":"CHRISTUS OCHSNER ST PATRICK HOSPITAL","city":"LAKE CHARLES","st":"LA","beds":230,"lat":30.2156,"lon":-93.2275},{"ccn":"190036","name":"OCHSNER MEDICAL CENTER","city":"NEW ORLEANS","st":"LA","beds":982,"lat":29.9626,"lon":-90.1445},{"ccn":"190039","name":"WEST JEFFERSON MEDICAL CENTER","city":"MARRERO","st":"LA","beds":306,"lat":29.8357,"lon":-90.1103},{"ccn":"190040","name":"SLIDELL MEMORIAL HOSPITAL","city":"SLIDELL","st":"LA","beds":331,"lat":30.2847,"lon":-89.771},{"ccn":"190041","name":"CHRISTUS SHREVEPORT-BOSSIER HEALTH SYSTEM","city":"SHREVEPORT","st":"LA","beds":242,"lat":32.4263,"lon":-93.7185},{"ccn":"190045","name":"ST TAMMANY PARISH HOSPITAL","city":"COVINGTON","st":"LA","beds":281,"lat":30.468,"lon":-90.1145},{"ccn":"190046","name":"TOURO INFIRMARY","city":"NEW ORLEANS","st":"LA","beds":341,"lat":29.9249,"lon":-90.0926},{"ccn":"190050","name":"BEAUREGARD MEMORIAL HOSPITAL","city":"DERIDDER","st":"LA","beds":49,"lat":30.8419,"lon":-93.289},{"ccn":"190053","name":"OCHSNER AMERICAN LEGION HOSPITAL","city":"JENNINGS","st":"LA","beds":49,"lat":30.2664,"lon":-92.6736},{"ccn":"190060","name":"LAKE CHARLES MEMORIAL HOSPITAL","city":"LAKE CHARLES","st":"LA","beds":407,"lat":30.2034,"lon":-93.1973},{"ccn":"190064","name":"OUR LADY OF THE LAKE REGIONAL MEDICAL CENTER","city":"BATON ROUGE","st":"LA","beds":976,"lat":30.4041,"lon":-91.1391},{"ccn":"190065","name":"BATON ROUGE GENERAL MEDICAL CENTER","city":"BATON ROUGE","st":"LA","beds":384,"lat":30.3957,"lon":-91.103},{"ccn":"190079","name":"ST CHARLES PARISH HOSPITAL","city":"LULING","st":"LA","beds":57,"lat":29.9243,"lon":-90.3718},{"ccn":"190086","name":"NORTHERN LOUISIANA MEDICAL CENTER","city":"RUSTON","st":"LA","beds":65,"lat":32.5156,"lon":-92.6331},{"ccn":"190098","name":"OCHSNER LSU HEALTH SHREVEPORT","city":"SHREVEPORT","st":"LA","beds":395,"lat":32.4817,"lon":-93.7616},{"ccn":"190111","name":"WILLIS KNIGHTON MEDICAL CENTER, INC","city":"SHREVEPORT","st":"LA","beds":949,"lat":32.484,"lon":-93.7788},{"ccn":"190125","name":"ST FRANCIS MEDICAL CENTER","city":"MONROE","st":"LA","beds":325,"lat":32.4992,"lon":-92.1145},{"ccn":"190144","name":"MINDEN MEDICAL CENTER","city":"MINDEN","st":"LA","beds":92,"lat":32.6173,"lon":-93.2856},{"ccn":"190151","name":"RICHARDSON MEDICAL CENTER","city":"RAYVILLE","st":"LA","beds":38,"lat":32.462,"lon":-91.7479},{"ccn":"190160","name":"GLENWOOD REGIONAL MEDICAL CENTER","city":"WEST MONROE","st":"LA","beds":257,"lat":32.5134,"lon":-92.1554},{"ccn":"190164","name":"BYRD REGIONAL HOSPITAL","city":"LEESVILLE","st":"LA","beds":49,"lat":31.1374,"lon":-93.2689},{"ccn":"190167","name":"MERCY REGIONAL MEDICAL CENTER","city":"VILLE PLATTE","st":"LA","beds":49,"lat":30.6849,"lon":-92.266},{"ccn":"190176","name":"EAST JEFFERSON GENERAL HOSPITAL","city":"METAIRIE","st":"LA","beds":875,"lat":30.0144,"lon":-90.1816},{"ccn":"190183","name":"LEONARD J CHABERT MEDICAL CENTER","city":"HOUMA","st":"LA","beds":156,"lat":29.5726,"lon":-90.6986},{"ccn":"190202","name":"OCHSNER MEDICAL CENTER - BATON ROUGE","city":"BATON ROUGE","st":"LA","beds":162,"lat":30.4427,"lon":-91.0008},{"ccn":"190274","name":"OCHSNER MEDICAL CENTER-KENNER","city":"KENNER","st":"LA","beds":110,"lat":30.0236,"lon":-90.2781},{"ccn":"190303","name":"CYPRESS POINTE SURGICAL HOSPITAL","city":"HAMMOND","st":"LA","beds":30,"lat":30.4753,"lon":-90.4142},{"ccn":"190308","name":"ST BERNARD PARISH HOSPITAL","city":"CHALMETTE","st":"LA","beds":40,"lat":29.9558,"lon":-89.9854},{"ccn":"190318","name":"ACADIAN MEDICAL CENTER","city":"EUNICE","st":"LA","beds":49,"lat":30.4952,"lon":-92.3859},{"ccn":"191302","name":"OCHSNER ST MARTIN HOSPITAL","city":"BREAUX BRIDGE","st":"LA","beds":25,"lat":30.2821,"lon":-91.8901},{"ccn":"191313","name":"RIVERSIDE MEDICAL CENTER","city":"FRANKLINTON","st":"LA","beds":25,"lat":30.8357,"lon":-90.1523},{"ccn":"200001","name":"ST JOSEPH HOSPITAL","city":"BANGOR","st":"ME","beds":112,"lat":44.8146,"lon":-68.7714},{"ccn":"200008","name":"NORTHERN LIGHT HEALTH","city":"PORTLAND","st":"ME","beds":230,"lat":43.6483,"lon":-70.2832},{"ccn":"200009","name":"MAINE MEDICAL CENTER","city":"PORTLAND","st":"ME","beds":606,"lat":43.6527,"lon":-70.2746},{"ccn":"200018","name":"NORTHERN LIGHT A R GOULD HOSPITAL","city":"PRESQUE ISLE","st":"ME","beds":89,"lat":46.689,"lon":-67.9919},{"ccn":"200020","name":"YORK HOSPITAL","city":"YORK","st":"ME","beds":79,"lat":43.1424,"lon":-70.6509},{"ccn":"200021","name":"MID COAST HOSPITAL","city":"BRUNSWICK","st":"ME","beds":92,"lat":43.9063,"lon":-69.8915},{"ccn":"200024","name":"CENTRAL MAINE MEDICAL CENTER","city":"LEWISTON","st":"ME","beds":250,"lat":44.1028,"lon":-70.213},{"ccn":"200033","name":"NORTHERN LIGHT EASTERN MAINE MEDICAL CENTER","city":"BANGOR","st":"ME","beds":411,"lat":44.81,"lon":-68.7495},{"ccn":"200034","name":"ST MARY'S REGIONAL MEDICAL CENTER","city":"LEWISTON","st":"ME","beds":233,"lat":44.102,"lon":-70.1996},{"ccn":"200039","name":"MAINEGENERAL MEDICAL CENTER","city":"AUGUSTA","st":"ME","beds":287,"lat":44.3519,"lon":-69.7476},{"ccn":"210001","name":"MERITUS MEDICAL CENTER","city":"HAGERSTOWN","st":"MD","beds":271,"lat":39.6222,"lon":-77.6816},{"ccn":"210002","name":"UNIVERSITY OF MARYLAND MEDICAL CENTER","city":"BALTIMORE","st":"MD","beds":816,"lat":39.2885,"lon":-76.6237},{"ccn":"210003","name":"UNIVERSITY OF MD CAPITAL REGION MEDICAL CENTER","city":"UPPER MARLBORO","st":"MD","beds":224,"lat":38.8972,"lon":-76.8421},{"ccn":"210005","name":"FREDERICK HEALTH HOSPITAL","city":"FREDERICK","st":"MD","beds":248,"lat":39.4236,"lon":-77.4139},{"ccn":"210008","name":"MERCY MEDICAL CENTER INC","city":"BALTIMORE","st":"MD","beds":285,"lat":39.2924,"lon":-76.6135},{"ccn":"210009","name":"JOHNS HOPKINS HOSPITAL, THE","city":"BALTIMORE","st":"MD","beds":1025,"lat":39.2969,"lon":-76.5909},{"ccn":"210012","name":"SINAI HOSPITAL OF BALTIMORE","city":"BALTIMORE","st":"MD","beds":413,"lat":39.3549,"lon":-76.6622},{"ccn":"210016","name":"ADVENTIST HEALTHCARE WHITE OAK MEDICAL CENTER","city":"SILVER SPRING","st":"MD","beds":298,"lat":39.0666,"lon":-76.9807},{"ccn":"210018","name":"MEDSTAR MONTGOMERY MEDICAL CENTER","city":"OLNEY","st":"MD","beds":165,"lat":39.1536,"lon":-77.0567},{"ccn":"210019","name":"TIDALHEALTH PENINSULA REGIONAL, INC","city":"SALISBURY","st":"MD","beds":362,"lat":38.3632,"lon":-75.5978},{"ccn":"210022","name":"SUBURBAN HOSPITAL","city":"BETHESDA","st":"MD","beds":229,"lat":38.9968,"lon":-77.1093},{"ccn":"210023","name":"LUMINIS HEALTH ANNE ARUNDEL MEDICAL CENTER, INC","city":"ANNAPOLIS","st":"MD","beds":370,"lat":38.9903,"lon":-76.5348},{"ccn":"210029","name":"JOHNS HOPKINS BAYVIEW MEDICAL CENTER","city":"BALTIMORE","st":"MD","beds":430,"lat":39.2872,"lon":-76.5547},{"ccn":"210035","name":"UNIVERSITY OF MD CHARLES REGIONAL  MEDICAL CENTER","city":"LA PLATA","st":"MD","beds":131,"lat":38.5286,"lon":-76.9704},{"ccn":"210037","name":"UNIVERSITY OF MD SHORE MEDICAL CENTER AT EASTON","city":"EASTON","st":"MD","beds":189,"lat":38.7701,"lon":-76.0759},{"ccn":"210040","name":"NORTHWEST HOSPITAL CENTER","city":"RANDALLSTOWN","st":"MD","beds":215,"lat":39.3597,"lon":-76.7817},{"ccn":"210044","name":"GREATER BALTIMORE MEDICAL CENTER","city":"BALTIMORE","st":"MD","beds":303,"lat":39.3947,"lon":-76.6275},{"ccn":"210049","name":"UNIVERSITY OF MD UPPER CHESAPEAKE MEDICAL CENTER","city":"BEL AIR","st":"MD","beds":219,"lat":39.5195,"lon":-76.3483},{"ccn":"210051","name":"LUMINIS HEALTH DOCTORS COMMUNITY MEDICAL CTR, INC","city":"LANHAM","st":"MD","beds":182,"lat":38.9805,"lon":-76.8656},{"ccn":"210057","name":"ADVENTIST HEALTHCARE SHADY GROVE MEDICAL CENTER","city":"ROCKVILLE","st":"MD","beds":331,"lat":39.0965,"lon":-77.1988},{"ccn":"210062","name":"MEDSTAR SOUTHERN MARYLAND HOSPITAL CENTER","city":"CLINTON","st":"MD","beds":239,"lat":38.7506,"lon":-76.8761},{"ccn":"210063","name":"UNIVERSITY OF MD ST JOSEPH MEDICAL CENTER","city":"TOWSON","st":"MD","beds":238,"lat":39.388,"lon":-76.6132},{"ccn":"210065","name":"HOLY CROSS GERMANTOWN HOSPITAL","city":"GERMANTOWN","st":"MD","beds":93,"lat":39.1792,"lon":-77.2425},{"ccn":"220010","name":"LAWRENCE GENERAL HOSPITAL","city":"LAWRENCE","st":"MA","beds":189,"lat":42.7091,"lon":-71.148},{"ccn":"220012","name":"CAPE COD HOSPITAL","city":"HYANNIS","st":"MA","beds":259,"lat":41.6546,"lon":-70.2736},{"ccn":"220015","name":"COOLEY DICKINSON HOSPITAL INC,THE","city":"NORTHAMPTON","st":"MA","beds":142,"lat":42.333,"lon":-72.658},{"ccn":"220029","name":"ANNA JAQUES HOSPITAL","city":"NEWBURYPORT","st":"MA","beds":123,"lat":42.8147,"lon":-70.8904},{"ccn":"220031","name":"BOSTON MEDICAL CENTER CORPORATION-","city":"BOSTON","st":"MA","beds":441,"lat":42.3347,"lon":-71.0754},{"ccn":"220036","name":"ST ELIZABETH'S MEDICAL CENTER","city":"BRIGHTON","st":"MA","beds":252,"lat":42.35,"lon":-71.1475},{"ccn":"220060","name":"BETH ISRAEL DEACONESS HOSPITAL - PLYMOUTH","city":"PLYMOUTH","st":"MA","beds":155,"lat":41.9448,"lon":-70.6456},{"ccn":"220071","name":"MASSACHUSETTS GENERAL HOSPITAL","city":"BOSTON","st":"MA","beds":907,"lat":42.3625,"lon":-71.0698},{"ccn":"220077","name":"BAYSTATE MEDICAL CENTER","city":"SPRINGFIELD","st":"MA","beds":716,"lat":42.119,"lon":-72.6041},{"ccn":"220080","name":"HOLY FAMILY HOSPITAL","city":"METHUEN","st":"MA","beds":275,"lat":42.7261,"lon":-71.1641},{"ccn":"220086","name":"BETH ISRAEL DEACONESS MEDICAL CENTER","city":"BOSTON","st":"MA","beds":597,"lat":42.3398,"lon":-71.1062},{"ccn":"220116","name":"TUFTS MEDICAL CENTER","city":"BOSTON","st":"MA","beds":415,"lat":42.3502,"lon":-71.0633},{"ccn":"220171","name":"LAHEY HOSPITAL & MEDICAL CENTER, BURLINGTON","city":"BURLINGTON","st":"MA","beds":327,"lat":42.5032,"lon":-71.2017},{"ccn":"220176","name":"ST VINCENT HOSPITAL","city":"WORCESTER","st":"MA","beds":283,"lat":42.2654,"lon":-71.7954},{"ccn":"230002","name":"TRINITY HEALTH LIVONIA HOSPITAL","city":"LIVONIA","st":"MI","beds":273,"lat":42.3972,"lon":-83.3723},{"ccn":"230005","name":"PROMEDICA CHARLES AND VIRGINIA HICKMAN HOSPITAL","city":"ADRIAN","st":"MI","beds":88,"lat":41.9652,"lon":-84.0045},{"ccn":"230017","name":"BRONSON METHODIST HOSPITAL","city":"KALAMAZOO","st":"MI","beds":380,"lat":42.2862,"lon":-85.5813},{"ccn":"230020","name":"COREWELL HEALTH DEARBORN HOSPITAL","city":"DEARBORN","st":"MI","beds":623,"lat":42.2919,"lon":-83.2121},{"ccn":"230021","name":"COREWELL HEALTH LAKELAND HOSPITALS ST JOSEPH HOSPI","city":"ST JOSEPH","st":"MI","beds":313,"lat":42.0904,"lon":-86.4785},{"ccn":"230024","name":"SINAI-GRACE HOSPITAL","city":"DETROIT","st":"MI","beds":991,"lat":42.42,"lon":-83.182},{"ccn":"230029","name":"TRINITY HEALTH OAKLAND HOSPITAL","city":"PONTIAC","st":"MI","beds":395,"lat":42.6142,"lon":-83.2745},{"ccn":"230031","name":"LAKE HURON MEDICAL CENTER","city":"PORT HURON","st":"MI","beds":119,"lat":42.9804,"lon":-82.461},{"ccn":"230036","name":"MYMICHIGAN MEDICAL CENTER ALPENA","city":"ALPENA","st":"MI","beds":150,"lat":45.0756,"lon":-83.4492},{"ccn":"230038","name":"COREWELL HEALTH GRAND RAPIDS HOSPITALS BUTTERWORTH","city":"GRAND RAPIDS","st":"MI","beds":1135,"lat":42.9705,"lon":-85.6665},{"ccn":"230041","name":"MCLAREN BAY REGION","city":"BAY CITY","st":"MI","beds":387,"lat":43.5894,"lon":-83.8704},{"ccn":"230046","name":"UNIVERSITY OF MICHIGAN HEALTH","city":"ANN ARBOR","st":"MI","beds":884,"lat":42.2814,"lon":-83.7268},{"ccn":"230047","name":"HENRY FORD HEALTH MACOMB HOSPITAL","city":"CLINTON TOWNSHIP","st":"MI","beds":361,"lat":42.6062,"lon":-82.9375},{"ccn":"230054","name":"UP HEALTH SYSTEM - MARQUETTE","city":"MARQUETTE","st":"MI","beds":289,"lat":46.543,"lon":-87.4105},{"ccn":"230055","name":"MARSHFIELD MEDICAL CENTER","city":"IRON MOUNTAIN","st":"MI","beds":96,"lat":45.8084,"lon":-88.0461},{"ccn":"230059","name":"TRINITY HEALTH GRAND RAPIDS HOSPITAL","city":"GRAND RAPIDS","st":"MI","beds":230,"lat":42.9594,"lon":-85.664},{"ccn":"230066","name":"TRINITY HEALTH MUSKEGON HOSPITAL","city":"MUSKEGON","st":"MI","beds":382,"lat":43.2051,"lon":-86.2085},{"ccn":"230070","name":"COVENANT MEDICAL CENTER","city":"SAGINAW","st":"MI","beds":623,"lat":43.4281,"lon":-83.9556},{"ccn":"230072","name":"HOLLAND COMMUNITY HOSPITAL","city":"HOLLAND","st":"MI","beds":193,"lat":42.774,"lon":-86.1133},{"ccn":"230075","name":"BRONSON BATTLE CREEK HOSPITAL","city":"BATTLE CREEK","st":"MI","beds":204,"lat":42.3303,"lon":-85.1803},{"ccn":"230077","name":"ASCENSION ST MARY'S HOSPITAL","city":"SAGINAW","st":"MI","beds":268,"lat":43.4261,"lon":-83.9418},{"ccn":"230080","name":"MCLAREN CENTRAL MICHIGAN","city":"MOUNT PLEASANT","st":"MI","beds":151,"lat":43.5986,"lon":-84.7606},{"ccn":"230089","name":"COREWELL HEALTH BEAUMONT GROSSE POINTE HOSPITAL","city":"GROSSE POINTE","st":"MI","beds":311,"lat":42.3843,"lon":-82.9153},{"ccn":"230092","name":"HENRY FORD HEALTH JACKSON HOSPITAL","city":"JACKSON","st":"MI","beds":412,"lat":42.2506,"lon":-84.3937},{"ccn":"230097","name":"MUNSON MEDICAL CENTER","city":"TRAVERSE CITY","st":"MI","beds":377,"lat":44.7616,"lon":-85.6415},{"ccn":"230104","name":"HARPER UNIVERSITY HOSPITAL","city":"DETROIT","st":"MI","beds":712,"lat":42.3508,"lon":-83.0575},{"ccn":"230130","name":"COREWELL HEALTH WILLIAM BEAUMONT UNIVERSITY HOSPIT","city":"ROYAL OAK","st":"MI","beds":1031,"lat":42.5177,"lon":-83.1911},{"ccn":"230132","name":"HURLEY MEDICAL CENTER","city":"FLINT","st":"MI","beds":383,"lat":43.0213,"lon":-83.7044},{"ccn":"230141","name":"MCLAREN FLINT","city":"FLINT","st":"MI","beds":368,"lat":43.0146,"lon":-83.7334},{"ccn":"230146","name":"HENRY FORD HEALTH WYANDOTTE HOSPITAL","city":"WYANDOTTE","st":"MI","beds":345,"lat":42.2104,"lon":-83.1489},{"ccn":"230151","name":"COREWELL HEALTH FARMINGTON HILLS HOSPITAL","city":"FARMINGTON HILLS","st":"MI","beds":305,"lat":42.4438,"lon":-83.3249},{"ccn":"230165","name":"ASCENSION ST JOHN HOSPITAL","city":"DETROIT","st":"MI","beds":625,"lat":42.419,"lon":-82.9149},{"ccn":"230167","name":"MCLAREN GREATER LANSING","city":"LANSING","st":"MI","beds":363,"lat":42.702,"lon":-84.4989},{"ccn":"230193","name":"MCLAREN LAPEER REGION","city":"LAPEER","st":"MI","beds":183,"lat":43.0621,"lon":-83.3194},{"ccn":"230195","name":"ASCENSION MACOMB OAKLAND HOSP-WARREN CAMPUS","city":"WARREN","st":"MI","beds":348,"lat":42.5071,"lon":-83.0034},{"ccn":"230197","name":"ASCENSION GENESYS HOSPITAL","city":"GRAND BLANC","st":"MI","beds":410,"lat":42.9164,"lon":-83.6294},{"ccn":"230207","name":"MCLAREN OAKLAND","city":"PONTIAC","st":"MI","beds":308,"lat":42.6385,"lon":-83.291},{"ccn":"230216","name":"MCLAREN PORT HURON","city":"PORT HURON","st":"MI","beds":163,"lat":42.9867,"lon":-82.428},{"ccn":"230227","name":"MCLAREN MACOMB","city":"MOUNT CLEMENS","st":"MI","beds":288,"lat":42.5981,"lon":-82.8815},{"ccn":"230236","name":"UNIVERSITY OF MICHIGAN HEALTH - WEST","city":"WYOMING","st":"MI","beds":208,"lat":42.8573,"lon":-85.7229},{"ccn":"230244","name":"GARDEN CITY HOSPITAL","city":"GARDEN CITY","st":"MI","beds":323,"lat":42.3244,"lon":-83.3412},{"ccn":"230269","name":"BEAUMONT HOSPITAL, TROY","city":"TROY","st":"MI","beds":254,"lat":42.621,"lon":-83.0914},{"ccn":"230277","name":"HURON VALLEY-SINAI HOSPITAL","city":"COMMERCE TOWNSHIP","st":"MI","beds":153,"lat":42.5908,"lon":-83.4973},{"ccn":"230302","name":"HENRY FORD HEALTH WEST BLOOMFIELD HOSPITAL","city":"WEST BLOOMFIELD","st":"MI","beds":191,"lat":42.5415,"lon":-83.4081},{"ccn":"231340","name":"MCLAREN THUMB REGION","city":"BAD AXE","st":"MI","beds":64,"lat":43.8024,"lon":-83.0328},{"ccn":"240001","name":"NORTH MEMORIAL HEALTH","city":"ROBBINSDALE","st":"MN","beds":518,"lat":45.0093,"lon":-93.3411},{"ccn":"240002","name":"ESSENTIA HEALTH ST MARY'S MEDICAL CENTER","city":"DULUTH","st":"MN","beds":380,"lat":46.7921,"lon":-92.0953},{"ccn":"240004","name":"HENNEPIN COUNTY MEDICAL CENTER","city":"MINNEAPOLIS","st":"MN","beds":894,"lat":44.9728,"lon":-93.2627},{"ccn":"240010","name":"MAYO CLINIC HOSPITAL ROCHESTER","city":"ROCHESTER","st":"MN","beds":2059,"lat":44.0216,"lon":-92.4817},{"ccn":"240036","name":"ST CLOUD HOSPITAL","city":"SAINT CLOUD","st":"MN","beds":489,"lat":45.5752,"lon":-94.1703},{"ccn":"240038","name":"UNITED HOSPITAL","city":"SAINT PAUL","st":"MN","beds":603,"lat":44.9423,"lon":-93.1078},{"ccn":"240053","name":"PARK NICOLLET METHODIST HOSPITAL","city":"SAINT LOUIS PARK","st":"MN","beds":426,"lat":44.9271,"lon":-93.3614},{"ccn":"240056","name":"RIDGEVIEW MEDICAL CENTER","city":"WACONIA","st":"MN","beds":109,"lat":44.8433,"lon":-93.7909},{"ccn":"240057","name":"ABBOTT NORTHWESTERN HOSPITAL","city":"MINNEAPOLIS","st":"MN","beds":996,"lat":44.952,"lon":-93.2625},{"ccn":"240078","name":"M HEALTH FAIRVIEW SOUTHDALE HOSPITAL","city":"EDINA","st":"MN","beds":390,"lat":44.8863,"lon":-93.3288},{"ccn":"240080","name":"M HEALTH FAIRVIEW UNIVERSITY OF MN","city":"MINNEAPOLIS","st":"MN","beds":1700,"lat":44.9659,"lon":-93.2369},{"ccn":"240100","name":"SANFORD BEMIDJI MEDICAL CENTER","city":"BEMIDJI","st":"MN","beds":118,"lat":47.505,"lon":-94.9},{"ccn":"240106","name":"REGIONS HOSPITAL","city":"SAINT PAUL","st":"MN","beds":554,"lat":44.9544,"lon":-93.0954},{"ccn":"240115","name":"MERCY HOSPITAL","city":"COON RAPIDS","st":"MN","beds":573,"lat":45.185,"lon":-93.3713},{"ccn":"250004","name":"NORTH MISSISSIPPI MEDICAL CENTER","city":"TUPELO","st":"MS","beds":650,"lat":34.2443,"lon":-88.7174},{"ccn":"250009","name":"MAGNOLIA REGIONAL HEALTH CENTER","city":"CORINTH","st":"MS","beds":164,"lat":34.9171,"lon":-88.5718},{"ccn":"250019","name":"MEMORIAL HOSPITAL AT GULFPORT","city":"GULFPORT","st":"MS","beds":445,"lat":30.367,"lon":-89.1147},{"ccn":"250034","name":"BAPTIST MEMORIAL HOSPITAL NORTH MS","city":"OXFORD","st":"MS","beds":217,"lat":34.3503,"lon":-89.5308},{"ccn":"250048","name":"ST DOMINIC-JACKSON MEMORIAL HOSPITAL","city":"JACKSON","st":"MS","beds":571,"lat":32.3339,"lon":-90.1596},{"ccn":"250058","name":"SOUTH CENTRAL REG MED CTR","city":"LAUREL","st":"MS","beds":285,"lat":31.6858,"lon":-89.1408},{"ccn":"250069","name":"OCHSNER RUSH HOSPITAL","city":"MERIDIAN","st":"MS","beds":215,"lat":32.37,"lon":-88.6977},{"ccn":"250072","name":"MERIT HEALTH CENTRAL","city":"JACKSON","st":"MS","beds":473,"lat":32.2868,"lon":-90.2552},{"ccn":"250078","name":"FORREST GENERAL HOSPITAL","city":"HATTIESBURG","st":"MS","beds":537,"lat":31.3527,"lon":-89.3421},{"ccn":"250082","name":"DELTA HEALTH SYSTEM - THE MEDICAL CENTER","city":"GREENVILLE","st":"MS","beds":268,"lat":33.41,"lon":-91.0353},{"ccn":"250084","name":"MERIT HEALTH NATCHEZ","city":"NATCHEZ","st":"MS","beds":179,"lat":31.5297,"lon":-91.3877},{"ccn":"250094","name":"MERIT HEALTH WESLEY","city":"HATTIESBURG","st":"MS","beds":211,"lat":31.3235,"lon":-89.3638},{"ccn":"250097","name":"SOUTHWEST MS REGIONAL MEDICAL CENTER","city":"MCCOMB","st":"MS","beds":160,"lat":31.2522,"lon":-90.4724},{"ccn":"250100","name":"BMH-GOLDEN TRIANGLE","city":"COLUMBUS","st":"MS","beds":328,"lat":33.5256,"lon":-88.429},{"ccn":"250104","name":"ANDERSON REGIONAL MEDICAL CENTER","city":"MERIDIAN","st":"MS","beds":260,"lat":32.3708,"lon":-88.6991},{"ccn":"250167","name":"METHODIST HEALTHCARE - OLIVE BRANCH HOSPITAL","city":"OLIVE BRANCH","st":"MS","beds":60,"lat":34.9339,"lon":-89.8163},{"ccn":"250168","name":"UNIVERSITY OF MISSISSIPPI MEDICAL CENTER- GRENADA","city":"GRENADA","st":"MS","beds":156,"lat":33.7625,"lon":-89.8029},{"ccn":"260006","name":"MOSAIC LIFE CARE AT ST JOSEPH","city":"SAINT JOSEPH","st":"MO","beds":353,"lat":39.7702,"lon":-94.7718},{"ccn":"260009","name":"BOTHWELL REGIONAL HEALTH CENTER","city":"SEDALIA","st":"MO","beds":185,"lat":38.6991,"lon":-93.2227},{"ccn":"260011","name":"SSM HEALTH ST. MARY'S HOSPITAL - JEFFERSON CITY","city":"JEFFERSON CITY","st":"MO","beds":154,"lat":38.5731,"lon":-92.2787},{"ccn":"260020","name":"MERCY HOSPITAL ST LOUIS","city":"SAINT LOUIS","st":"MO","beds":859,"lat":38.6586,"lon":-90.4582},{"ccn":"260022","name":"NORTHEAST REGIONAL MEDICAL CENTER","city":"KIRKSVILLE","st":"MO","beds":194,"lat":40.1924,"lon":-92.5908},{"ccn":"260023","name":"MERCY HOSPITAL JEFFERSON","city":"FESTUS","st":"MO","beds":240,"lat":38.1962,"lon":-90.3953},{"ccn":"260025","name":"HANNIBAL REGIONAL HOSPITAL","city":"HANNIBAL","st":"MO","beds":99,"lat":39.6907,"lon":-91.4566},{"ccn":"260027","name":"RESEARCH MEDICAL CENTER","city":"KANSAS CITY","st":"MO","beds":545,"lat":39.0072,"lon":-94.5589},{"ccn":"260032","name":"BARNES JEWISH HOSPITAL","city":"SAINT LOUIS","st":"MO","beds":1737,"lat":38.6258,"lon":-90.267},{"ccn":"260040","name":"COX MEDICAL CENTERS","city":"SPRINGFIELD","st":"MO","beds":867,"lat":37.1437,"lon":-93.278},{"ccn":"260048","name":"UNIVERSITY HEALTH TRUMAN MEDICAL CENTER","city":"KANSAS CITY","st":"MO","beds":283,"lat":39.0851,"lon":-94.5757},{"ccn":"260052","name":"MERCY HOSPITAL WASHINGTON","city":"WASHINGTON","st":"MO","beds":185,"lat":38.5522,"lon":-91.0019},{"ccn":"260062","name":"SAINT LUKES NORTH HOSPITAL","city":"KANSAS CITY","st":"MO","beds":147,"lat":39.2469,"lon":-94.6473},{"ccn":"260065","name":"MERCY HOSPITAL SPRINGFIELD","city":"SPRINGFIELD","st":"MO","beds":866,"lat":37.178,"lon":-93.2753},{"ccn":"260068","name":"BOONE HOSPITAL CENTER","city":"COLUMBIA","st":"MO","beds":394,"lat":38.9506,"lon":-92.317},{"ccn":"260074","name":"MOBERLY REGIONAL MEDICAL CENTER","city":"MOBERLY","st":"MO","beds":101,"lat":39.4239,"lon":-92.413},{"ccn":"260077","name":"MERCY HOSPITAL SOUTH","city":"SAINT LOUIS","st":"MO","beds":767,"lat":38.5105,"lon":-90.3786},{"ccn":"260078","name":"OZARKS HEALTHCARE","city":"WEST PLAINS","st":"MO","beds":120,"lat":36.7371,"lon":-91.8755},{"ccn":"260081","name":"SSM HEALTH ST CLARE HOSPITAL - FENTON","city":"FENTON","st":"MO","beds":180,"lat":38.5257,"lon":-90.4735},{"ccn":"260085","name":"ST JOSEPH MEDICAL CENTER","city":"KANSAS CITY","st":"MO","beds":300,"lat":38.935,"lon":-94.6039},{"ccn":"260091","name":"SSM HEALTH ST MARY'S HOSPITAL - ST LOUIS","city":"RICHMOND HEIGHTS","st":"MO","beds":690,"lat":38.6339,"lon":-90.3098},{"ccn":"260095","name":"CENTERPOINT MEDICAL CENTER","city":"INDEPENDENCE","st":"MO","beds":366,"lat":39.0477,"lon":-94.348},{"ccn":"260096","name":"NORTH KANSAS CITY HOSPITAL","city":"NORTH KANSAS CITY","st":"MO","beds":451,"lat":39.1501,"lon":-94.55},{"ccn":"260104","name":"SSM HEALTH DEPAUL HOSPITAL ST LOUIS","city":"BRIDGETON","st":"MO","beds":538,"lat":38.7532,"lon":-90.4333},{"ccn":"260105","name":"SSM HEALTH SAINT LOUIS UNIVERSITY HOSPITAL","city":"SAINT LOUIS","st":"MO","beds":356,"lat":38.6233,"lon":-90.2378},{"ccn":"260108","name":"MISSOURI BAPTIST MEDICAL CENTER","city":"TOWN AND COUNTRY","st":"MO","beds":494,"lat":38.6347,"lon":-90.4436},